[{"id":0,"locationName":"Kaiser Permanente Panorama City CFM","address":"13652 Cantara St, Panorama City, CA 91402","hasEBT":true,"hasMarketMatch":true,"rewards":null,"coupons":null,"contact":null,"websiteURL":"http://www.sfma.net/","position":{"lat":"34.218790","long":"-118.430056"},"season_1_start":"Year Round","season_1_end":null,"season_2_start":null,"season_2_end":null,"days":"Wednesday","frequency":null,"time_open":"09:00:00","time_close":"13:30:00","distance_from_sylmar":10217},{"id":1,"locationName":"Old Town Newhall","address":"24500 Main St, Santa Clarita, CA 91321","hasEBT":true,"hasMarketMatch":true,"rewards":null,"coupons":null,"contact":null,"websiteURL":"https://www.facebook.com/OldTownNewhallFarmersMarket/","position":{"lat":"34.381616","long":"-118.530276"},"season_1_start":"Year Round","season_1_end":null,"season_2_start":null,"season_2_end":null,"days":"Saturday","frequency":null,"time_open":"08:30:00","time_close":"13:00:00","distance_from_sylmar":10279},{"id":2,"locationName":"Vallarta Supermarket #7","address":"12881 Bradley Ave, Sylmar, CA 91342","hasEBT":true,"hasMarketMatch":false,"rewards":null,"coupons":null,"contact":null,"websiteURL":null,"position":{"lat":34.303289,"long":-118.458771},"distance_from_sylmar":846},{"id":3,"locationName":"Hacienda Market","address":"12441 San Fernando Rd, Sylmar, CA 91342","hasEBT":true,"hasMarketMatch":false,"rewards":null,"coupons":null,"contact":null,"websiteURL":null,"position":{"lat":34.296536,"long":-118.456324},"distance_from_sylmar":1418},{"id":4,"locationName":"Sylmar Market","address":"12831 Norris Ave, Sylmar, CA 91342","hasEBT":true,"hasMarketMatch":false,"rewards":null,"coupons":null,"contact":null,"websiteURL":null,"position":{"lat":34.303296,"long":-118.454226},"distance_from_sylmar":1255},{"id":5,"locationName":"Mimi Market","address":"12923 San Fernando Rd, Sylmar, CA 91342","hasEBT":true,"hasMarketMatch":false,"rewards":null,"coupons":null,"contact":null,"websiteURL":null,"position":{"lat":34.304894,"long":-118.466998},"distance_from_sylmar":69},{"id":6,"locationName":"Hmz, Inc #82847","address":"1753 Truman St, San Fernando, CA 91340","hasEBT":true,"hasMarketMatch":false,"rewards":null,"coupons":null,"contact":null,"websiteURL":null,"position":{"lat":34.291217,"long":-118.4491},"distance_from_sylmar":2307},{"id":7,"locationName":"El Progreso Market","address":"1701 Truman St, San Fernando, CA 91340","hasEBT":true,"hasMarketMatch":false,"rewards":null,"coupons":null,"contact":null,"websiteURL":null,"position":{"lat":34.290691,"long":-118.448161},"distance_from_sylmar":2411},{"id":8,"locationName":"American Dollar Plus Llc #Ste 17","address":"12737 Glenoaks Blvd, Sylmar, CA 91342","hasEBT":true,"hasMarketMatch":false,"rewards":null,"coupons":null,"contact":null,"websiteURL":null,"position":{"lat":34.301443,"long":-118.442907},"distance_from_sylmar":2316},{"id":9,"locationName":"Food 4 Less","address":"12689 Glenoaks Blvd, Sylmar, CA 91342","hasEBT":true,"hasMarketMatch":false,"rewards":null,"coupons":null,"contact":null,"websiteURL":null,"position":{"lat":34.299754,"long":-118.441947},"distance_from_sylmar":2442},{"id":10,"locationName":"Big Lots #4447","address":"12716 Glenoaks Blvd, Sylmar, CA 91342","hasEBT":true,"hasMarketMatch":false,"rewards":null,"coupons":null,"contact":null,"websiteURL":null,"position":{"lat":34.301446,"long":-118.441296},"distance_from_sylmar":2462},{"id":11,"locationName":"Kwik Market And Deli","address":"15675 Roxford St, Sylmar, CA 91342","hasEBT":true,"hasMarketMatch":false,"rewards":null,"coupons":null,"contact":null,"websiteURL":null,"position":{"lat":34.310028,"long":-118.473645},"distance_from_sylmar":772},{"id":12,"locationName":"Smart & Final #323","address":"2040 Glenoaks Blvd, San Fernando, CA 91340","hasEBT":true,"hasMarketMatch":false,"rewards":null,"coupons":null,"contact":null,"websiteURL":null,"position":{"lat":34.298568,"long":-118.438717},"distance_from_sylmar":2763},{"id":13,"locationName":"Vallarta Supermarket","address":"757 S Workman St, San Fernando, CA 91340","hasEBT":true,"hasMarketMatch":false,"rewards":null,"coupons":null,"contact":null,"websiteURL":null,"position":{"lat":34.28268,"long":-118.452543},"distance_from_sylmar":2862},{"id":14,"locationName":"Rite Aid","address":"14727 Rinaldi St, San Fernando, CA 91340","hasEBT":true,"hasMarketMatch":false,"rewards":null,"coupons":null,"contact":null,"websiteURL":null,"position":{"lat":34.281158,"long":-118.454448},"distance_from_sylmar":2934},{"id":15,"locationName":"Carniceria La Esperanza","address":"13569 Glenoaks Blvd, Sylmar, CA 91342","hasEBT":true,"hasMarketMatch":false,"rewards":null,"coupons":null,"contact":null,"websiteURL":null,"position":{"lat":34.318378,"long":-118.464463},"distance_from_sylmar":1503},{"id":16,"locationName":"El Super","address":"315 San Fernando Mission Blvd, San Fernando, CA 91340","hasEBT":true,"hasMarketMatch":false,"rewards":null,"coupons":null,"contact":null,"websiteURL":null,"position":{"lat":34.28434,"long":-118.444695},"distance_from_sylmar":3136},{"id":17,"locationName":"Kiko's Mini Market","address":"552 S Kalisher St, San Fernando, CA 91340","hasEBT":true,"hasMarketMatch":false,"rewards":null,"coupons":null,"contact":null,"websiteURL":null,"position":{"lat":34.282815,"long":-118.447501},"distance_from_sylmar":3102},{"id":18,"locationName":"El Rancho Plaza Market","address":"13566 Glenoaks Blvd, Sylmar, CA 91342","hasEBT":true,"hasMarketMatch":false,"rewards":null,"coupons":null,"contact":null,"websiteURL":null,"position":{"lat":34.318845,"long":-118.463905},"distance_from_sylmar":1565},{"id":19,"locationName":"La Chuleta Fresca Prime & Grill #2","address":"13566 Glenoaks Blvd, Sylmar, CA 91342","hasEBT":true,"hasMarketMatch":false,"rewards":null,"coupons":null,"contact":null,"websiteURL":null,"position":{"lat":34.318848,"long":-118.463907},"distance_from_sylmar":1565},{"id":20,"locationName":"G&M #127","address":"11501 Sepulveda Blvd, Mission Hills, CA 91345","hasEBT":true,"hasMarketMatch":false,"rewards":null,"coupons":null,"contact":null,"websiteURL":null,"position":{"lat":34.279632,"long":-118.469121},"distance_from_sylmar":2842},{"id":21,"locationName":"Villalongin Market","address":"13947 Foothill Blvd #101, Sylmar, CA 91342","hasEBT":true,"hasMarketMatch":false,"rewards":null,"coupons":null,"contact":null,"websiteURL":null,"position":{"lat":34.313497,"long":-118.43732},"distance_from_sylmar":2943},{"id":22,"locationName":"Foothill V & Y Inc #81435","address":"13883 Foothill Blvd, Sylmar, CA 91342","hasEBT":true,"hasMarketMatch":false,"rewards":null,"coupons":null,"contact":null,"websiteURL":null,"position":{"lat":34.311997,"long":-118.43582},"distance_from_sylmar":3028},{"id":23,"locationName":"Vons","address":"13730 Foothill Blvd, Sylmar, CA 91342","hasEBT":true,"hasMarketMatch":false,"rewards":null,"coupons":null,"contact":null,"websiteURL":null,"position":{"lat":34.308293,"long":-118.433196},"distance_from_sylmar":3191},{"id":24,"locationName":"Store #68540","address":"15540 Rinaldi St, Granada Hills, CA 91344","hasEBT":true,"hasMarketMatch":false,"rewards":null,"coupons":null,"contact":null,"websiteURL":null,"position":{"lat":34.278685,"long":-118.470748},"distance_from_sylmar":2958},{"id":25,"locationName":"Rite Aid #5552","address":"13803 Foothill Blvd, Sylmar, CA 91342","hasEBT":true,"hasMarketMatch":false,"rewards":null,"coupons":null,"contact":null,"websiteURL":null,"position":{"lat":34.310858,"long":-118.433785},"distance_from_sylmar":3182},{"id":26,"locationName":"Pioneer Market Inc.","address":"465 S Brand Blvd, San Fernando, CA 91340","hasEBT":true,"hasMarketMatch":false,"rewards":null,"coupons":null,"contact":null,"websiteURL":null,"position":{"lat":34.279959,"long":-118.442763},"distance_from_sylmar":3621},{"id":27,"locationName":"Gnc Properties Inc #2654323","address":"15000 Olive View Dr, Sylmar, CA 91342","hasEBT":true,"hasMarketMatch":false,"rewards":null,"coupons":null,"contact":null,"websiteURL":null,"position":{"lat":34.324315,"long":-118.459684},"distance_from_sylmar":2258},{"id":28,"locationName":"Laurel Canyon Shell #106","address":"11274 Laurel Canyon Blvd, San Fernando, CA 91340","hasEBT":true,"hasMarketMatch":false,"rewards":null,"coupons":null,"contact":null,"websiteURL":null,"position":{"lat":34.275302,"long":-118.449144},"distance_from_sylmar":3734},{"id":29,"locationName":"Ziggy's Meat Market","address":"965 N Maclay Ave, San Fernando, CA 91340","hasEBT":true,"hasMarketMatch":false,"rewards":null,"coupons":null,"contact":null,"websiteURL":null,"position":{"lat":34.293574,"long":-118.42764},"distance_from_sylmar":3902},{"id":30,"locationName":"99 Cent Only Store #422","address":"13237 Gladstone Ave, Sylmar, CA 91342","hasEBT":true,"hasMarketMatch":false,"rewards":null,"coupons":null,"contact":null,"websiteURL":null,"position":{"lat":34.3114,"long":-118.429728},"distance_from_sylmar":3560},{"id":31,"locationName":"Olive View Medical Center Cfm","address":"14445 Olive View Dr, Sylmar, CA 91342","hasEBT":true,"hasMarketMatch":false,"rewards":null,"coupons":null,"contact":null,"websiteURL":null,"position":{"lat":34.325759,"long":-118.45104},"distance_from_sylmar":2759},{"id":32,"locationName":"Ed's Market","address":"972 N Maclay Ave, San Fernando, CA 91340","hasEBT":true,"hasMarketMatch":false,"rewards":null,"coupons":null,"contact":null,"websiteURL":null,"position":{"lat":34.293354,"long":-118.427126},"distance_from_sylmar":3954},{"id":33,"locationName":"Orchard's Neighborhood Market","address":"13221 Gladstone Ave, Sylmar, CA 91342","hasEBT":true,"hasMarketMatch":false,"rewards":null,"coupons":null,"contact":null,"websiteURL":null,"position":{"lat":34.311,"long":-118.42889},"distance_from_sylmar":3627},{"id":34,"locationName":"Lalo's Discount Store","address":"1035 N Maclay Ave, San Fernando, CA 91340","hasEBT":true,"hasMarketMatch":false,"rewards":null,"coupons":null,"contact":null,"websiteURL":null,"position":{"lat":34.294544,"long":-118.426282},"distance_from_sylmar":3986},{"id":35,"locationName":"G&M #123","address":"11221 Laurel Canyon Blvd, San Fernando, CA 91340","hasEBT":true,"hasMarketMatch":false,"rewards":null,"coupons":null,"contact":null,"websiteURL":null,"position":{"lat":34.273612,"long":-118.448416},"distance_from_sylmar":3932},{"id":36,"locationName":"Maclay Market","address":"1024 N Maclay Ave, San Fernando, CA 91340","hasEBT":true,"hasMarketMatch":false,"rewards":null,"coupons":null,"contact":null,"websiteURL":null,"position":{"lat":34.293653,"long":-118.42594},"distance_from_sylmar":4047},{"id":37,"locationName":"Pdq Mart & Deli","address":"15973 Yarnell St, Sylmar, CA 91342","hasEBT":true,"hasMarketMatch":false,"rewards":null,"coupons":null,"contact":null,"websiteURL":null,"position":{"lat":34.322098,"long":-118.479539},"distance_from_sylmar":2180},{"id":38,"locationName":"Mother's Nutritional Center #242","address":"1161 N Maclay Ave, San Fernando, CA 91340","hasEBT":true,"hasMarketMatch":false,"rewards":null,"coupons":null,"contact":null,"websiteURL":null,"position":{"lat":34.295867,"long":-118.424423},"distance_from_sylmar":4110},{"id":39,"locationName":"Central Market Inc","address":"11479 San Fernando Rd, San Fernando, CA 91340","hasEBT":true,"hasMarketMatch":false,"rewards":null,"coupons":null,"contact":null,"websiteURL":null,"position":{"lat":34.278034,"long":-118.435724},"distance_from_sylmar":4213},{"id":40,"locationName":"Beers Corner Market","address":"13227 Maclay St, San Fernando, CA 91340","hasEBT":true,"hasMarketMatch":false,"rewards":null,"coupons":null,"contact":null,"websiteURL":null,"position":{"lat":34.298072,"long":-118.421378},"distance_from_sylmar":4331},{"id":41,"locationName":"Alta Dena Express","address":"16138 San Fernando Mission Blvd, Granada Hills, CA 91344","hasEBT":true,"hasMarketMatch":false,"rewards":null,"coupons":null,"contact":null,"websiteURL":null,"position":{"lat":34.271611,"long":-118.484001},"distance_from_sylmar":4022},{"id":42,"locationName":"Sanamyan Meat & Grill","address":"16156 San Fernando Mission Blvd, Granada Hills, CA 91344","hasEBT":true,"hasMarketMatch":false,"rewards":null,"coupons":null,"contact":null,"websiteURL":null,"position":{"lat":34.271528,"long":-118.484252},"distance_from_sylmar":4040},{"id":43,"locationName":"G&M Oil # 0087","address":"10701 Sepulveda Blvd, Mission Hills, CA 91345","hasEBT":true,"hasMarketMatch":false,"rewards":null,"coupons":null,"contact":null,"websiteURL":null,"position":{"lat":34.264907,"long":-118.467828},"distance_from_sylmar":4479},{"id":44,"locationName":"H&M Mission Hills Market","address":"15340 Chatsworth St, Mission Hills, CA 91345","hasEBT":true,"hasMarketMatch":false,"rewards":null,"coupons":null,"contact":null,"websiteURL":null,"position":{"lat":34.264261,"long":-118.466471},"distance_from_sylmar":4552},{"id":45,"locationName":"Brothers Fresh Markeplace","address":"118581/2 Balboa Blvd, Granada Hills, CA 91344","hasEBT":true,"hasMarketMatch":false,"rewards":null,"coupons":null,"contact":null,"websiteURL":null,"position":{"lat":34.2863,"long":-118.500907},"distance_from_sylmar":3705},{"id":46,"locationName":"Costco Wholesale #1071","address":"13550 Paxton St, Pacoima, CA 91331","hasEBT":true,"hasMarketMatch":false,"rewards":null,"coupons":null,"contact":null,"websiteURL":null,"position":{"lat":34.27188,"long":-118.426716},"distance_from_sylmar":5283},{"id":47,"locationName":"El Sauz Meat Market","address":"13236 Paxton St, Pacoima, CA 91331","hasEBT":true,"hasMarketMatch":false,"rewards":null,"coupons":null,"contact":null,"websiteURL":null,"position":{"lat":34.277198,"long":-118.420646},"distance_from_sylmar":5329},{"id":48,"locationName":"Cortesia Market","address":"11552 Glenoaks Blvd, Pacoima, CA 91331","hasEBT":true,"hasMarketMatch":false,"rewards":null,"coupons":null,"contact":null,"websiteURL":null,"position":{"lat":34.280061,"long":-118.4178},"distance_from_sylmar":5371},{"id":49,"locationName":"G&M Oil #109","address":"10685 Laurel Canyon Blvd, Pacoima, CA 91331","hasEBT":true,"hasMarketMatch":false,"rewards":null,"coupons":null,"contact":null,"websiteURL":null,"position":{"lat":34.264317,"long":-118.438467},"distance_from_sylmar":5280},{"id":50,"locationName":"Target #3218","address":"10340 Sepulveda Blvd, Mission Hills, CA 91345","hasEBT":true,"hasMarketMatch":false,"rewards":null,"coupons":null,"contact":null,"websiteURL":null,"position":{"lat":34.258664,"long":-118.466531},"distance_from_sylmar":5175},{"id":51,"locationName":"Carniceria La Especial","address":"13310 Filmore St, Pacoima, CA 91331","hasEBT":true,"hasMarketMatch":false,"rewards":null,"coupons":null,"contact":null,"websiteURL":null,"position":{"lat":34.270779,"long":-118.422536},"distance_from_sylmar":5646},{"id":52,"locationName":"La Bodega Meat And Produce Inc","address":"10915 San Fernando Rd, Pacoima, CA 91331","hasEBT":true,"hasMarketMatch":false,"rewards":null,"coupons":null,"contact":null,"websiteURL":null,"position":{"lat":34.268402,"long":-118.425131},"distance_from_sylmar":5661},{"id":53,"locationName":"Vons","address":"10321 Sepulveda Blvd, Mission Hills, CA 91345","hasEBT":true,"hasMarketMatch":false,"rewards":null,"coupons":null,"contact":null,"websiteURL":null,"position":{"lat":34.258306,"long":-118.468252},"distance_from_sylmar":5214},{"id":54,"locationName":"Dany's Ampm #42801","address":"14761 Devonshire St, Mission Hills, CA 91345","hasEBT":true,"hasMarketMatch":false,"rewards":null,"coupons":null,"contact":null,"websiteURL":null,"position":{"lat":34.257535,"long":-118.453869},"distance_from_sylmar":5450},{"id":55,"locationName":"Smart & Final #372","address":"10893 San Fernando Rd, Pacoima, CA 91331","hasEBT":true,"hasMarketMatch":false,"rewards":null,"coupons":null,"contact":null,"websiteURL":null,"position":{"lat":34.267867,"long":-118.424753},"distance_from_sylmar":5728},{"id":56,"locationName":"Island Pacific Supermarket #27","address":"11130 Balboa Blvd, Granada Hills, CA 91344","hasEBT":true,"hasMarketMatch":false,"rewards":null,"coupons":null,"contact":null,"websiteURL":null,"position":{"lat":34.27319,"long":-118.500401},"distance_from_sylmar":4658},{"id":57,"locationName":"Vons","address":"16830 San Fernando Mission Blvd, Granada Hills, CA 91344","hasEBT":true,"hasMarketMatch":false,"rewards":null,"coupons":null,"contact":null,"websiteURL":null,"position":{"lat":34.270979,"long":-118.498896},"distance_from_sylmar":4764},{"id":58,"locationName":"Granada International Market","address":"11116 Balboa Blvd, Granada Hills, CA 91344","hasEBT":true,"hasMarketMatch":false,"rewards":null,"coupons":null,"contact":null,"websiteURL":null,"position":{"lat":34.272515,"long":-118.500469},"distance_from_sylmar":4720},{"id":59,"locationName":"Trader Joe's","address":"11114 Balboa Blvd, Granada Hills, CA 91344","hasEBT":true,"hasMarketMatch":false,"rewards":null,"coupons":null,"contact":null,"websiteURL":null,"position":{"lat":34.272659,"long":-118.501605},"distance_from_sylmar":4775},{"id":60,"locationName":"Manny's Mobil","address":"16955 San Fernando Mission Blvd, Granada Hills, CA 91344","hasEBT":true,"hasMarketMatch":false,"rewards":null,"coupons":null,"contact":null,"websiteURL":null,"position":{"lat":34.272386,"long":-118.501929},"distance_from_sylmar":4818},{"id":61,"locationName":"Numero Uno Market","address":"10455 Laurel Canyon Blvd, Pacoima, CA 91331","hasEBT":true,"hasMarketMatch":false,"rewards":null,"coupons":null,"contact":null,"websiteURL":null,"position":{"lat":34.259407,"long":-118.434108},"distance_from_sylmar":5955},{"id":62,"locationName":"Store #68539","address":"11105 Balboa Blvd, Granada Hills, CA 91344","hasEBT":true,"hasMarketMatch":false,"rewards":null,"coupons":null,"contact":null,"websiteURL":null,"position":{"lat":34.272321,"long":-118.502571},"distance_from_sylmar":4862},{"id":63,"locationName":"98 + Bargains","address":"13003 Van Nuys Blvd, Pacoima, CA 91331","hasEBT":true,"hasMarketMatch":false,"rewards":null,"coupons":null,"contact":null,"websiteURL":null,"position":{"lat":34.270407,"long":-118.416961},"distance_from_sylmar":6059},{"id":64,"locationName":"Food 4 Less","address":"12765 Van Nuys Blvd, Pacoima, CA 91331","hasEBT":true,"hasMarketMatch":false,"rewards":null,"coupons":null,"contact":null,"websiteURL":null,"position":{"lat":34.275409,"long":-118.412385},"distance_from_sylmar":6068},{"id":65,"locationName":"El Toro Grande Market","address":"13158 Van Nuys Blvd, Pacoima, CA 91331","hasEBT":true,"hasMarketMatch":false,"rewards":null,"coupons":null,"contact":null,"websiteURL":null,"position":{"lat":34.267891,"long":-118.419285},"distance_from_sylmar":6084},{"id":66,"locationName":"Mother's Nutritional Center #612","address":"13643 Van Nuys Blvd, Pacoima, CA 91331","hasEBT":true,"hasMarketMatch":false,"rewards":null,"coupons":null,"contact":null,"websiteURL":null,"position":{"lat":34.260637,"long":-118.430252},"distance_from_sylmar":6033},{"id":67,"locationName":"Target Store","address":"11133 Balboa Blvd, Granada Hills, CA 91344","hasEBT":true,"hasMarketMatch":false,"rewards":null,"coupons":null,"contact":null,"websiteURL":null,"position":{"lat":34.272872,"long":-118.503697},"distance_from_sylmar":4886},{"id":68,"locationName":"Eden Roc Market","address":"13404 Van Nuys Blvd, Pacoima, CA 91331","hasEBT":true,"hasMarketMatch":false,"rewards":null,"coupons":null,"contact":null,"websiteURL":null,"position":{"lat":34.263881,"long":-118.424502},"distance_from_sylmar":6072},{"id":69,"locationName":"El Nido Farmer's Market","address":"11243 Glenoaks Blvd, Pacoima, CA 91331","hasEBT":true,"hasMarketMatch":false,"rewards":null,"coupons":null,"contact":null,"websiteURL":null,"position":{"lat":34.273943,"long":-118.412979},"distance_from_sylmar":6114},{"id":70,"locationName":"La Petroleum, Inc","address":"13570 Van Nuys Blvd, Pacoima, CA 91331","hasEBT":true,"hasMarketMatch":false,"rewards":null,"coupons":null,"contact":null,"websiteURL":null,"position":{"lat":34.26113,"long":-118.428449},"distance_from_sylmar":6085},{"id":71,"locationName":"La Placita Meat Market","address":"10402 Laurel Canyon Blvd, Pacoima, CA 91331","hasEBT":true,"hasMarketMatch":false,"rewards":null,"coupons":null,"contact":null,"websiteURL":null,"position":{"lat":34.259143,"long":-118.432146},"distance_from_sylmar":6075},{"id":72,"locationName":"Rite Aid","address":"12739 Van Nuys Blvd, Pacoima, CA 91331","hasEBT":true,"hasMarketMatch":false,"rewards":null,"coupons":null,"contact":null,"websiteURL":null,"position":{"lat":34.275298,"long":-118.410925},"distance_from_sylmar":6188},{"id":73,"locationName":"Vena Market","address":"13941 Van Nuys Blvd, Arleta, CA 91331","hasEBT":true,"hasMarketMatch":false,"rewards":null,"coupons":null,"contact":null,"websiteURL":null,"position":{"lat":34.255976,"long":-118.436801},"distance_from_sylmar":6166},{"id":74,"locationName":"Smart & Final #460","address":"16210 Devonshire St, North Hills, CA 91343","hasEBT":true,"hasMarketMatch":false,"rewards":null,"coupons":null,"contact":null,"websiteURL":null,"position":{"lat":34.256752,"long":-118.485758},"distance_from_sylmar":5637},{"id":75,"locationName":"Best Live Poultry & Fish, Llc","address":"12253 Foothill Blvd, Sylmar, CA 91342","hasEBT":true,"hasMarketMatch":false,"rewards":null,"coupons":null,"contact":null,"websiteURL":null,"position":{"lat":34.282303,"long":-118.402806},"distance_from_sylmar":6486},{"id":76,"locationName":"Araz Market","address":"12251 Foothill Blvd, Sylmar, CA 91342","hasEBT":true,"hasMarketMatch":false,"rewards":null,"coupons":null,"contact":null,"websiteURL":null,"position":{"lat":34.282241,"long":-118.402737},"distance_from_sylmar":6495},{"id":77,"locationName":"Handy Liqour 2","address":"10642 Balboa Blvd, Granada Hills, CA 91344","hasEBT":true,"hasMarketMatch":false,"rewards":null,"coupons":null,"contact":null,"websiteURL":null,"position":{"lat":34.263679,"long":-118.501828},"distance_from_sylmar":5582},{"id":78,"locationName":"99 Cents Only Stores  #55","address":"17034 Chatsworth St, Granada Hills, CA 91344","hasEBT":true,"hasMarketMatch":false,"rewards":null,"coupons":null,"contact":null,"websiteURL":null,"position":{"lat":34.264791,"long":-118.503659},"distance_from_sylmar":5578},{"id":79,"locationName":"D & K Milk Palace","address":"11045 Glenoaks Blvd, Pacoima, CA 91331","hasEBT":true,"hasMarketMatch":false,"rewards":null,"coupons":null,"contact":null,"websiteURL":null,"position":{"lat":34.270262,"long":-118.408666},"distance_from_sylmar":6674},{"id":80,"locationName":"Ralph Grocery Company #10","address":"9750 Woodman Ave, Arleta, CA 91331","hasEBT":true,"hasMarketMatch":false,"rewards":null,"coupons":null,"contact":null,"websiteURL":null,"position":{"lat":34.24819,"long":-118.448137},"distance_from_sylmar":6590},{"id":81,"locationName":"El Super","address":"9710 Woodman Ave, Arleta, CA 91331","hasEBT":true,"hasMarketMatch":false,"rewards":null,"coupons":null,"contact":null,"websiteURL":null,"position":{"lat":34.247641,"long":-118.445973},"distance_from_sylmar":6705},{"id":82,"locationName":"El Milagro Panaderia, Inc.","address":"12040 Foothill Blvd, Sylmar, CA 91342","hasEBT":true,"hasMarketMatch":false,"rewards":null,"coupons":null,"contact":null,"websiteURL":null,"position":{"lat":34.277003,"long":-118.398921},"distance_from_sylmar":7058},{"id":83,"locationName":"Victory Produce","address":"10365 Balboa Blvd, Granada Hills, CA 91344","hasEBT":true,"hasMarketMatch":false,"rewards":null,"coupons":null,"contact":null,"websiteURL":null,"position":{"lat":34.259025,"long":-118.502946},"distance_from_sylmar":6072},{"id":84,"locationName":"G&M #97","address":"17011 Devonshire St, Northridge, CA 91325","hasEBT":true,"hasMarketMatch":false,"rewards":null,"coupons":null,"contact":null,"websiteURL":null,"position":{"lat":34.257838,"long":-118.502774},"distance_from_sylmar":6176},{"id":85,"locationName":"Ralphs","address":"16940 Devonshire St, Granada Hills, CA 91344","hasEBT":true,"hasMarketMatch":false,"rewards":null,"coupons":null,"contact":null,"websiteURL":null,"position":{"lat":34.256727,"long":-118.501532},"distance_from_sylmar":6224},{"id":86,"locationName":"Lakeview Farm Market, Inc.","address":"11924 Foothill Blvd, Sylmar, CA 91342","hasEBT":true,"hasMarketMatch":false,"rewards":null,"coupons":null,"contact":null,"websiteURL":null,"position":{"lat":34.275214,"long":-118.396839},"distance_from_sylmar":7318},{"id":87,"locationName":"Double Bargain","address":"11914 Foothill Blvd, Sylmar, CA 91342","hasEBT":true,"hasMarketMatch":false,"rewards":null,"coupons":null,"contact":null,"websiteURL":null,"position":{"lat":34.274765,"long":-118.396526},"distance_from_sylmar":7367},{"id":88,"locationName":"Casa Food Mart","address":"11885 Foothill Blvd, Sylmar, CA 91342","hasEBT":true,"hasMarketMatch":false,"rewards":null,"coupons":null,"contact":null,"websiteURL":null,"position":{"lat":34.274944,"long":-118.394973},"distance_from_sylmar":7485},{"id":89,"locationName":"Baith Al Halal","address":"17515 Chatsworth St, Granada Hills, CA 91344","hasEBT":true,"hasMarketMatch":false,"rewards":null,"coupons":null,"contact":null,"websiteURL":null,"position":{"lat":34.265213,"long":-118.51589},"distance_from_sylmar":6278},{"id":90,"locationName":"Carniceria La Consentida Meat Market","address":"11840 Foothill Blvd, Sylmar, CA 91342","hasEBT":true,"hasMarketMatch":false,"rewards":null,"coupons":null,"contact":null,"websiteURL":null,"position":{"lat":34.273597,"long":-118.39507},"distance_from_sylmar":7546},{"id":91,"locationName":"Vallarta Supermarkets #18","address":"10175 San Fernando Rd, Pacoima, CA 91331","hasEBT":true,"hasMarketMatch":false,"rewards":null,"coupons":null,"contact":null,"websiteURL":null,"position":{"lat":34.254928,"long":-118.410747},"distance_from_sylmar":7660},{"id":92,"locationName":"Superior Grocers","address":"9801 Laurel Canyon Blvd, Pacoima, CA 91331","hasEBT":true,"hasMarketMatch":false,"rewards":null,"coupons":null,"contact":null,"websiteURL":null,"position":{"lat":34.247021,"long":-118.421717},"distance_from_sylmar":7729},{"id":93,"locationName":"Hovik's Famous Meat & Deli","address":"17660 Chatsworth St, Granada Hills, CA 91344","hasEBT":true,"hasMarketMatch":false,"rewards":null,"coupons":null,"contact":null,"websiteURL":null,"position":{"lat":34.264508,"long":-118.51957},"distance_from_sylmar":6575},{"id":94,"locationName":"California Deli Mini","address":"13205 Osborne St, Arleta, CA 91331","hasEBT":true,"hasMarketMatch":false,"rewards":null,"coupons":null,"contact":null,"websiteURL":null,"position":{"lat":34.24657,"long":-118.42092},"distance_from_sylmar":7811},{"id":95,"locationName":"Rite Aid #5553","address":"10823 Zelzah Ave, Granada Hills, CA 91344","hasEBT":true,"hasMarketMatch":false,"rewards":null,"coupons":null,"contact":null,"websiteURL":null,"position":{"lat":34.266877,"long":-118.52388},"distance_from_sylmar":6697},{"id":96,"locationName":"Sprouts Farmers Market #223","address":"10821 Zelzah Ave, Granada Hills, CA 91344","hasEBT":true,"hasMarketMatch":false,"rewards":null,"coupons":null,"contact":null,"websiteURL":null,"position":{"lat":34.266717,"long":-118.524206},"distance_from_sylmar":6732},{"id":97,"locationName":"La Potosina Meat & Market","address":"13439 Osborne St, Arleta, CA 91331","hasEBT":true,"hasMarketMatch":false,"rewards":null,"coupons":null,"contact":null,"websiteURL":null,"position":{"lat":34.242558,"long":-118.426143},"distance_from_sylmar":7946},{"id":98,"locationName":"Vallarta Supermarkets #8","address":"9136 Sepulveda Blvd, North Hills, CA 91343","hasEBT":true,"hasMarketMatch":false,"rewards":null,"coupons":null,"contact":null,"websiteURL":null,"position":{"lat":34.236583,"long":-118.466412},"distance_from_sylmar":7632},{"id":99,"locationName":"Target Store","address":"9725 Laurel Canyon Blvd, Pacoima, CA 91331","hasEBT":true,"hasMarketMatch":false,"rewards":null,"coupons":null,"contact":null,"websiteURL":null,"position":{"lat":34.245145,"long":-118.419397},"distance_from_sylmar":8021},{"id":100,"locationName":"Araz International Grocery Maeket","address":"10668 Zelzah Ave, Granada Hills, CA 91344","hasEBT":true,"hasMarketMatch":false,"rewards":null,"coupons":null,"contact":null,"websiteURL":null,"position":{"lat":34.264308,"long":-118.523002},"distance_from_sylmar":6822},{"id":101,"locationName":"Supreme Butchery","address":"10654 Zelzah Ave, Granada Hills, CA 91344","hasEBT":true,"hasMarketMatch":false,"rewards":null,"coupons":null,"contact":null,"websiteURL":null,"position":{"lat":34.263886,"long":-118.522988},"distance_from_sylmar":6853},{"id":102,"locationName":"Genuine Energy Company Inc","address":"14525 Nordhoff St, Panorama City, CA 91402","hasEBT":true,"hasMarketMatch":false,"rewards":null,"coupons":null,"contact":null,"websiteURL":null,"position":{"lat":34.235641,"long":-118.449117},"distance_from_sylmar":7923},{"id":103,"locationName":"Short Stop #23","address":"15400 Nordhoff St, North Hills, CA 91343","hasEBT":true,"hasMarketMatch":false,"rewards":null,"coupons":null,"contact":null,"websiteURL":null,"position":{"lat":34.23525,"long":-118.468146},"distance_from_sylmar":7780},{"id":104,"locationName":"Ralphs Grocery Co.","address":"18010 Chatsworth St, Granada Hills, CA 91344","hasEBT":true,"hasMarketMatch":false,"rewards":null,"coupons":null,"contact":null,"websiteURL":null,"position":{"lat":34.263236,"long":-118.524165},"distance_from_sylmar":6981},{"id":105,"locationName":"Food 4 Less","address":"9635 Laurel Canyon Blvd, Arleta, CA 91331","hasEBT":true,"hasMarketMatch":false,"rewards":null,"coupons":null,"contact":null,"websiteURL":null,"position":{"lat":34.243857,"long":-118.417588},"distance_from_sylmar":8233},{"id":106,"locationName":"Rocket #0167","address":"15712 Nordhoff St, North Hills, CA 91343","hasEBT":true,"hasMarketMatch":false,"rewards":null,"coupons":null,"contact":null,"websiteURL":null,"position":{"lat":34.235253,"long":-118.474535},"distance_from_sylmar":7805},{"id":107,"locationName":"Walmart Neighborhood Market","address":"14530 Nordhoff St, Panorama City, CA 91402","hasEBT":true,"hasMarketMatch":false,"rewards":null,"coupons":null,"contact":null,"websiteURL":null,"position":{"lat":34.234427,"long":-118.44866},"distance_from_sylmar":8064},{"id":108,"locationName":"Valley Seafood & Poultry Market","address":"9023 Sepulveda Blvd, North Hills, CA 91343","hasEBT":true,"hasMarketMatch":false,"rewards":null,"coupons":null,"contact":null,"websiteURL":null,"position":{"lat":34.234202,"long":-118.468102},"distance_from_sylmar":7897},{"id":109,"locationName":"Toyin's African Market","address":"9005 Sepulveda Blvd, North Hills, CA 91343","hasEBT":true,"hasMarketMatch":false,"rewards":null,"coupons":null,"contact":null,"websiteURL":null,"position":{"lat":34.234026,"long":-118.467953},"distance_from_sylmar":7916},{"id":110,"locationName":"Power Dollar #100","address":"9077 Woodman Ave, Pacoima, CA 91331","hasEBT":true,"hasMarketMatch":false,"rewards":null,"coupons":null,"contact":null,"websiteURL":null,"position":{"lat":34.234915,"long":-118.440225},"distance_from_sylmar":8215},{"id":111,"locationName":"Panaderia Y Mercado La Fiesta","address":"8925 Sepulveda Blvd, North Hills, CA 91343","hasEBT":true,"hasMarketMatch":false,"rewards":null,"coupons":null,"contact":null,"websiteURL":null,"position":{"lat":34.232344,"long":-118.468193},"distance_from_sylmar":8104},{"id":112,"locationName":"Seafood City Supermarket","address":"16130 Nordhoff St, North Hills, CA 91343","hasEBT":true,"hasMarketMatch":false,"rewards":null,"coupons":null,"contact":null,"websiteURL":null,"position":{"lat":34.234832,"long":-118.483877},"distance_from_sylmar":7967},{"id":113,"locationName":"Vallarta Supermarket","address":"9011 Woodman Ave, Arleta, CA 91331","hasEBT":true,"hasMarketMatch":false,"rewards":null,"coupons":null,"contact":null,"websiteURL":null,"position":{"lat":34.233209,"long":-118.439643},"distance_from_sylmar":8413},{"id":114,"locationName":"One Stop Mini Mart","address":"12906 Branford St, Pacoima, CA 91331","hasEBT":true,"hasMarketMatch":false,"rewards":null,"coupons":null,"contact":null,"websiteURL":null,"position":{"lat":34.240529,"long":-118.413332},"distance_from_sylmar":8760},{"id":115,"locationName":"7 Kings Mini Market","address":"17646 Lassen St, Northridge, CA 91325","hasEBT":true,"hasMarketMatch":false,"rewards":null,"coupons":null,"contact":null,"websiteURL":null,"position":{"lat":34.250033,"long":-118.519487},"distance_from_sylmar":7767},{"id":116,"locationName":"99 Cents Only Store #227","address":"8723 Sepulveda Blvd, North Hills, CA 91343","hasEBT":true,"hasMarketMatch":false,"rewards":null,"coupons":null,"contact":null,"websiteURL":null,"position":{"lat":34.229077,"long":-118.468969},"distance_from_sylmar":8468},{"id":117,"locationName":"Kumar & Narang Genl #None","address":"15331 Parthenia St, North Hills, CA 91343","hasEBT":true,"hasMarketMatch":false,"rewards":null,"coupons":null,"contact":null,"websiteURL":null,"position":{"lat":34.228488,"long":-118.46665},"distance_from_sylmar":8533},{"id":118,"locationName":"Mercado El Rey 5","address":"15256 Parthenia St, North Hills, CA 91343","hasEBT":true,"hasMarketMatch":false,"rewards":null,"coupons":null,"contact":null,"websiteURL":null,"position":{"lat":34.228089,"long":-118.46529},"distance_from_sylmar":8580},{"id":119,"locationName":"Nutritional Food 2","address":"15320 Parthenia St, North Hills, CA 91343","hasEBT":true,"hasMarketMatch":false,"rewards":null,"coupons":null,"contact":null,"websiteURL":null,"position":{"lat":34.228084,"long":-118.466147},"distance_from_sylmar":8579},{"id":120,"locationName":"Ace Market Inc.","address":"14696 Parthenia St, Panorama City, CA 91402","hasEBT":true,"hasMarketMatch":false,"rewards":null,"coupons":null,"contact":null,"websiteURL":null,"position":{"lat":34.227906,"long":-118.453433},"distance_from_sylmar":8697},{"id":121,"locationName":"Amir Happy Nutrition #1","address":"14712 Parthenia St, Panorama City, CA 91402","hasEBT":true,"hasMarketMatch":false,"rewards":null,"coupons":null,"contact":null,"websiteURL":null,"position":{"lat":34.227682,"long":-118.454152},"distance_from_sylmar":8712},{"id":122,"locationName":"Smiley's Market","address":"14712 Parthenia St, Panorama City, CA 91402","hasEBT":true,"hasMarketMatch":false,"rewards":null,"coupons":null,"contact":null,"websiteURL":null,"position":{"lat":34.227682,"long":-118.454152},"distance_from_sylmar":8712},{"id":123,"locationName":"Tapalchulteca","address":"8640 Van Nuys Blvd, Panorama City, CA 91402","hasEBT":true,"hasMarketMatch":false,"rewards":null,"coupons":null,"contact":null,"websiteURL":null,"position":{"lat":34.227179,"long":-118.449627},"distance_from_sylmar":8836},{"id":124,"locationName":"El Super","address":"14620 Parthenia St, Panorama City, CA 91402","hasEBT":true,"hasMarketMatch":false,"rewards":null,"coupons":null,"contact":null,"websiteURL":null,"position":{"lat":34.226223,"long":-118.450835},"distance_from_sylmar":8921},{"id":125,"locationName":"Albertsons","address":"9022 Balboa Blvd, Northridge, CA 91325","hasEBT":true,"hasMarketMatch":false,"rewards":null,"coupons":null,"contact":null,"websiteURL":null,"position":{"lat":34.234443,"long":-118.50145},"distance_from_sylmar":8460},{"id":126,"locationName":"Food 4 Less","address":"8530 Tobias Ave, Panorama City, CA 91402","hasEBT":true,"hasMarketMatch":false,"rewards":null,"coupons":null,"contact":null,"websiteURL":null,"position":{"lat":34.225655,"long":-118.450954},"distance_from_sylmar":8981},{"id":127,"locationName":"Mother's Nutritional Center #450","address":"8530 Van Nuys Blvd, Panorama City, CA 91402","hasEBT":true,"hasMarketMatch":false,"rewards":null,"coupons":null,"contact":null,"websiteURL":null,"position":{"lat":34.225638,"long":-118.448699},"distance_from_sylmar":9021},{"id":128,"locationName":"Target Store","address":"8999 Balboa Blvd, Northridge, CA 91325","hasEBT":true,"hasMarketMatch":false,"rewards":null,"coupons":null,"contact":null,"websiteURL":null,"position":{"lat":34.234435,"long":-118.503519},"distance_from_sylmar":8533},{"id":129,"locationName":"La Plaza Meat Market","address":"13864 Chase St, Panorama City, CA 91402","hasEBT":true,"hasMarketMatch":false,"rewards":null,"coupons":null,"contact":null,"websiteURL":null,"position":{"lat":34.227157,"long":-118.435245},"distance_from_sylmar":9180},{"id":130,"locationName":"Food 4 Less","address":"16208 Parthenia St, North Hills, CA 91343","hasEBT":true,"hasMarketMatch":false,"rewards":null,"coupons":null,"contact":null,"websiteURL":null,"position":{"lat":34.227611,"long":-118.485849},"distance_from_sylmar":8790},{"id":131,"locationName":"99 Cents Only Stores  #42","address":"8625 Woodman Ave, Arleta, CA 91331","hasEBT":true,"hasMarketMatch":false,"rewards":null,"coupons":null,"contact":null,"websiteURL":null,"position":{"lat":34.226962,"long":-118.434291},"distance_from_sylmar":9229},{"id":132,"locationName":"Genuine Oil Company, Inc","address":"18473 Devonshire St, Northridge, CA 91325","hasEBT":true,"hasMarketMatch":false,"rewards":null,"coupons":null,"contact":null,"websiteURL":null,"position":{"lat":34.257667,"long":-118.535756},"distance_from_sylmar":8193},{"id":133,"locationName":"Smart & Final #420","address":"18555 Devonshire St, Northridge, CA 91324","hasEBT":true,"hasMarketMatch":false,"rewards":null,"coupons":null,"contact":null,"websiteURL":null,"position":{"lat":34.258399,"long":-118.537805},"distance_from_sylmar":8286},{"id":134,"locationName":"Walmart Supercenter","address":"8333 Van Nuys Blvd, Panorama City, CA 91402","hasEBT":true,"hasMarketMatch":false,"rewards":null,"coupons":null,"contact":null,"websiteURL":null,"position":{"lat":34.222656,"long":-118.449504},"distance_from_sylmar":9333},{"id":135,"locationName":"Tres Hermanos Market","address":"15021 Roscoe Blvd, Panorama City, CA 91402","hasEBT":true,"hasMarketMatch":false,"rewards":null,"coupons":null,"contact":null,"websiteURL":null,"position":{"lat":34.221739,"long":-118.460155},"distance_from_sylmar":9310},{"id":136,"locationName":"Galleria Market/Northridge Lp","address":"10201 Reseda Blvd, Northridge, CA 91324","hasEBT":true,"hasMarketMatch":false,"rewards":null,"coupons":null,"contact":null,"websiteURL":null,"position":{"lat":34.256108,"long":-118.537244},"distance_from_sylmar":8410},{"id":137,"locationName":"Aldi #79087","address":"14626 Roscoe Blvd, Panorama City, CA 91402","hasEBT":true,"hasMarketMatch":false,"rewards":null,"coupons":null,"contact":null,"websiteURL":null,"position":{"lat":34.22149,"long":-118.450938},"distance_from_sylmar":9438},{"id":138,"locationName":"El Progreso Supermarket #4","address":"8257 Sepulveda Blvd, Panorama City, CA 91402","hasEBT":true,"hasMarketMatch":false,"rewards":null,"coupons":null,"contact":null,"websiteURL":null,"position":{"lat":34.22116,"long":-118.46831},"distance_from_sylmar":9349},{"id":139,"locationName":"Nick's Enterprises Northridge Inc.","address":"8700 Balboa Blvd, Northridge, CA 91325","hasEBT":true,"hasMarketMatch":false,"rewards":null,"coupons":null,"contact":null,"websiteURL":null,"position":{"lat":34.228875,"long":-118.502172},"distance_from_sylmar":9063},{"id":140,"locationName":"Power Dollar #200","address":"8226 Van Nuys Blvd, Panorama City, CA 91402","hasEBT":true,"hasMarketMatch":false,"rewards":null,"coupons":null,"contact":null,"websiteURL":null,"position":{"lat":34.220736,"long":-118.448484},"distance_from_sylmar":9560},{"id":141,"locationName":"G&M #150","address":"15710 Roscoe Blvd, Van Nuys, CA 91406","hasEBT":true,"hasMarketMatch":false,"rewards":null,"coupons":null,"contact":null,"websiteURL":null,"position":{"lat":34.221013,"long":-118.474603},"distance_from_sylmar":9386},{"id":142,"locationName":"Rocket #152","address":"13737 Roscoe Blvd, Panorama City, CA 91402","hasEBT":true,"hasMarketMatch":false,"rewards":null,"coupons":null,"contact":null,"websiteURL":null,"position":{"lat":34.222049,"long":-118.432434},"distance_from_sylmar":9802},{"id":143,"locationName":"Matador Mercado - Student Housing #2","address":"18111 Nordhoff St, Northridge, CA 91325","hasEBT":true,"hasMarketMatch":false,"rewards":null,"coupons":null,"contact":null,"websiteURL":null,"position":{"lat":34.240067,"long":-118.526205},"distance_from_sylmar":9025},{"id":144,"locationName":"Genuine Petroleum Company, Inc","address":"13605 Roscoe Blvd, Panorama City, CA 91402","hasEBT":true,"hasMarketMatch":false,"rewards":null,"coupons":null,"contact":null,"websiteURL":null,"position":{"lat":34.221941,"long":-118.429111},"distance_from_sylmar":9918},{"id":145,"locationName":"Cal State Northridge Cfm","address":"18111 Nordhoff St, Northridge, CA 91325","hasEBT":true,"hasMarketMatch":false,"rewards":null,"coupons":null,"contact":null,"websiteURL":null,"position":{"lat":34.239916,"long":-118.526252},"distance_from_sylmar":9041},{"id":146,"locationName":"Matador Mercado Mbc","address":"18111 Nordhoff St, Northridge, CA 91325","hasEBT":true,"hasMarketMatch":false,"rewards":null,"coupons":null,"contact":null,"websiteURL":null,"position":{"lat":34.239916,"long":-118.526252},"distance_from_sylmar":9041},{"id":147,"locationName":"Seafood City Supermarket","address":"8231 Woodman Ave, Van Nuys, CA 91402","hasEBT":true,"hasMarketMatch":false,"rewards":null,"coupons":null,"contact":null,"websiteURL":null,"position":{"lat":34.220369,"long":-118.433255},"distance_from_sylmar":9954},{"id":148,"locationName":"Amazon Northridge","address":"19340 Rinaldi St, Northridge, CA 91326","hasEBT":true,"hasMarketMatch":false,"rewards":null,"coupons":null,"contact":null,"websiteURL":null,"position":{"lat":34.273457,"long":-118.554959},"distance_from_sylmar":8767},{"id":149,"locationName":"Copacabana Market","address":"9643 Reseda Blvd, Northridge, CA 91324","hasEBT":true,"hasMarketMatch":false,"rewards":null,"coupons":null,"contact":null,"websiteURL":null,"position":{"lat":34.24584,"long":-118.5363},"distance_from_sylmar":9133},{"id":150,"locationName":"Stallion Market","address":"10150 Stonehurst Ave, Sun Valley, CA 91352","hasEBT":true,"hasMarketMatch":false,"rewards":null,"coupons":null,"contact":null,"websiteURL":null,"position":{"lat":34.254816,"long":-118.372902},"distance_from_sylmar":10363},{"id":151,"locationName":"Los Vecinos Market","address":"14539 Blythe St, Panorama City, CA 91402","hasEBT":true,"hasMarketMatch":false,"rewards":null,"coupons":null,"contact":null,"websiteURL":null,"position":{"lat":34.215532,"long":-118.450018},"distance_from_sylmar":10107},{"id":152,"locationName":"Short Stop#27","address":"7929 Van Nuys Blvd, Panorama City, CA 91402","hasEBT":true,"hasMarketMatch":false,"rewards":null,"coupons":null,"contact":null,"websiteURL":null,"position":{"lat":34.215047,"long":-118.44906},"distance_from_sylmar":10174},{"id":153,"locationName":"Rite Aid","address":"18444 Plummer St, Northridge, CA 91325","hasEBT":true,"hasMarketMatch":false,"rewards":null,"coupons":null,"contact":null,"websiteURL":null,"position":{"lat":34.242378,"long":-118.535013},"distance_from_sylmar":9336},{"id":154,"locationName":"Van Nuys Live & Fresh Poultry","address":"14547 Arminta St, Van Nuys, CA 91402","hasEBT":true,"hasMarketMatch":false,"rewards":null,"coupons":null,"contact":null,"websiteURL":null,"position":{"lat":34.213903,"long":-118.45049},"distance_from_sylmar":10279},{"id":155,"locationName":"Target Store","address":"14920 Raymer St, Van Nuys, CA 91405","hasEBT":true,"hasMarketMatch":false,"rewards":null,"coupons":null,"contact":null,"websiteURL":null,"position":{"lat":34.212778,"long":-118.459339},"distance_from_sylmar":10310},{"id":156,"locationName":"Pratunum Market","address":"8236 Coldwater Canyon Ave, North Hollywood, CA 91605","hasEBT":true,"hasMarketMatch":false,"rewards":null,"coupons":null,"contact":null,"websiteURL":null,"position":{"lat":34.220848,"long":-118.414077},"distance_from_sylmar":10601},{"id":157,"locationName":"Smart & Final #349","address":"7815 Van Nuys Blvd, Panorama City, CA 91402","hasEBT":true,"hasMarketMatch":false,"rewards":null,"coupons":null,"contact":null,"websiteURL":null,"position":{"lat":34.212832,"long":-118.449933},"distance_from_sylmar":10405},{"id":158,"locationName":"Ralphs Fresh Fare","address":"19781 Rinaldi St, Northridge, CA 91326","hasEBT":true,"hasMarketMatch":false,"rewards":null,"coupons":null,"contact":null,"websiteURL":null,"position":{"lat":34.276223,"long":-118.563566},"distance_from_sylmar":9387},{"id":159,"locationName":"99 Cent Only Stores #399","address":"8437 Laurel Canyon Blvd, Sun Valley, CA 91352","hasEBT":true,"hasMarketMatch":false,"rewards":null,"coupons":null,"contact":null,"websiteURL":null,"position":{"lat":34.224329,"long":-118.398282},"distance_from_sylmar":11032},{"id":160,"locationName":"Vons","address":"9119 Reseda Blvd, Northridge, CA 91324","hasEBT":true,"hasMarketMatch":false,"rewards":null,"coupons":null,"contact":null,"websiteURL":null,"position":{"lat":34.235955,"long":-118.537756},"distance_from_sylmar":10043},{"id":161,"locationName":"Fast Stop","address":"10264 Foothill Blvd, Los Angeles, CA 91342","hasEBT":true,"hasMarketMatch":false,"rewards":null,"coupons":null,"contact":null,"websiteURL":null,"position":{"lat":34.273346,"long":-118.353126},"distance_from_sylmar":11115},{"id":162,"locationName":"Sepulveda & Saticoy Inc #42799","address":"7557 Sepulveda Blvd, Van Nuys, CA 91405","hasEBT":true,"hasMarketMatch":false,"rewards":null,"coupons":null,"contact":null,"websiteURL":null,"position":{"lat":34.208137,"long":-118.466482},"distance_from_sylmar":10799},{"id":163,"locationName":"Walmart","address":"19821 Rinaldi St, Porter Ranch, CA 91326","hasEBT":true,"hasMarketMatch":false,"rewards":null,"coupons":null,"contact":null,"websiteURL":null,"position":{"lat":34.277623,"long":-118.566849},"distance_from_sylmar":9620},{"id":164,"locationName":"India Sweets & Grocery","address":"18110 Parthenia St, Northridge, CA 91325","hasEBT":true,"hasMarketMatch":false,"rewards":null,"coupons":null,"contact":null,"websiteURL":null,"position":{"lat":34.227934,"long":-118.528315},"distance_from_sylmar":10245},{"id":165,"locationName":"Ralphs Grocery Company","address":"8325 Laurel Canyon Blvd, Sun Valley, CA 91352","hasEBT":true,"hasMarketMatch":false,"rewards":null,"coupons":null,"contact":null,"websiteURL":null,"position":{"lat":34.222579,"long":-118.39778},"distance_from_sylmar":11217},{"id":166,"locationName":"In & Go Liqour","address":"7650 Woodman Ave, Panorama City, CA 91402","hasEBT":true,"hasMarketMatch":false,"rewards":null,"coupons":null,"contact":null,"websiteURL":null,"position":{"lat":34.2097,"long":-118.430412},"distance_from_sylmar":11164},{"id":167,"locationName":"Aghapy Mart","address":"8254 White Oak Ave, Northridge, CA 91325","hasEBT":true,"hasMarketMatch":false,"rewards":null,"coupons":null,"contact":null,"websiteURL":null,"position":{"lat":34.220509,"long":-118.518294},"distance_from_sylmar":10508},{"id":168,"locationName":"The Meat Market","address":"7548 Woodley Ave, Van Nuys, CA 91406","hasEBT":true,"hasMarketMatch":false,"rewards":null,"coupons":null,"contact":null,"websiteURL":null,"position":{"lat":34.208152,"long":-118.483431},"distance_from_sylmar":10893},{"id":169,"locationName":"Bismillah Grocery And Meat Market","address":"7400 Van Nuys Blvd, Van Nuys, CA 91405","hasEBT":true,"hasMarketMatch":false,"rewards":null,"coupons":null,"contact":null,"websiteURL":null,"position":{"lat":34.205885,"long":-118.448362},"distance_from_sylmar":11191},{"id":170,"locationName":"Dollartree #8640","address":"19031 Golden Valley Rd, Santa Clarita, CA 91387","hasEBT":true,"hasMarketMatch":false,"rewards":null,"coupons":null,"contact":null,"websiteURL":null,"position":{"lat":34.394569,"long":-118.461084},"distance_from_sylmar":9974},{"id":171,"locationName":"Target Store","address":"19105 Golden Valley Rd, Canyon Country, CA 91387","hasEBT":true,"hasMarketMatch":false,"rewards":null,"coupons":null,"contact":null,"websiteURL":null,"position":{"lat":34.394577,"long":-118.464739},"distance_from_sylmar":9960},{"id":172,"locationName":"Michael's Market","address":"7510 Woodman Ave, Van Nuys, CA 91405","hasEBT":true,"hasMarketMatch":false,"rewards":null,"coupons":null,"contact":null,"websiteURL":null,"position":{"lat":34.206784,"long":-118.430899},"distance_from_sylmar":11460},{"id":173,"locationName":"Bombay Spiceland","address":"8650 Reseda Blvd, Northridge, CA 91324","hasEBT":true,"hasMarketMatch":false,"rewards":null,"coupons":null,"contact":null,"websiteURL":null,"position":{"lat":34.227698,"long":-118.535635},"distance_from_sylmar":10648},{"id":174,"locationName":"Dollar Downtown Store Plus","address":"24259 Main St, Santa Clarita, CA 91321","hasEBT":true,"hasMarketMatch":false,"rewards":null,"coupons":null,"contact":null,"websiteURL":null,"position":{"lat":34.377948,"long":-118.527586},"distance_from_sylmar":9798},{"id":175,"locationName":"Royal India Spiceland","address":"7242 Sepulveda Blvd, Van Nuys, CA 91405","hasEBT":true,"hasMarketMatch":false,"rewards":null,"coupons":null,"contact":null,"websiteURL":null,"position":{"lat":34.202513,"long":-118.465878},"distance_from_sylmar":11425},{"id":176,"locationName":"Balboa Market","address":"7613 Balboa Blvd, Lake Balboa, CA 91406","hasEBT":true,"hasMarketMatch":false,"rewards":null,"coupons":null,"contact":null,"websiteURL":null,"position":{"lat":34.208854,"long":-118.501485},"distance_from_sylmar":11160},{"id":177,"locationName":"Super King Market #6","address":"7227 Van Nuys Blvd, Van Nuys, CA 91405","hasEBT":true,"hasMarketMatch":false,"rewards":null,"coupons":null,"contact":null,"websiteURL":null,"position":{"lat":34.20238,"long":-118.450444},"distance_from_sylmar":11549},{"id":178,"locationName":"Thrifty Store 42101","address":"9090 Glenoaks Blvd, Sun Valley, CA 91352","hasEBT":true,"hasMarketMatch":false,"rewards":null,"coupons":null,"contact":null,"websiteURL":null,"position":{"lat":34.234403,"long":-118.370506},"distance_from_sylmar":11914},{"id":179,"locationName":"Rocket #0164","address":"7204 Van Nuys Blvd, Van Nuys, CA 91405","hasEBT":true,"hasMarketMatch":false,"rewards":null,"coupons":null,"contact":null,"websiteURL":null,"position":{"lat":34.201524,"long":-118.448376},"distance_from_sylmar":11670},{"id":180,"locationName":"Vallarta Supermarkets #5","address":"8453 Reseda Blvd, Northridge, CA 91324","hasEBT":true,"hasMarketMatch":false,"rewards":null,"coupons":null,"contact":null,"websiteURL":null,"position":{"lat":34.224338,"long":-118.536481},"distance_from_sylmar":10998},{"id":181,"locationName":"Jons Marketplace","address":"7134 Sepulveda Blvd, Van Nuys, CA 91405","hasEBT":true,"hasMarketMatch":false,"rewards":null,"coupons":null,"contact":null,"websiteURL":null,"position":{"lat":34.200137,"long":-118.465561},"distance_from_sylmar":11690},{"id":182,"locationName":"Rite Aid","address":"7239 Woodman Ave, Van Nuys, CA 91405","hasEBT":true,"hasMarketMatch":false,"rewards":null,"coupons":null,"contact":null,"websiteURL":null,"position":{"lat":34.202398,"long":-118.432146},"distance_from_sylmar":11895},{"id":183,"locationName":"Mother's Nutritional Center #604","address":"7132 Van Nuys Blvd, Van Nuys, CA 91405","hasEBT":true,"hasMarketMatch":false,"rewards":null,"coupons":null,"contact":null,"websiteURL":null,"position":{"lat":34.20029,"long":-118.447729},"distance_from_sylmar":11815},{"id":184,"locationName":"Friendly Market Inc","address":"26364 Sierra Hwy, Santa Clarita, CA 91321","hasEBT":true,"hasMarketMatch":false,"rewards":null,"coupons":null,"contact":null,"websiteURL":null,"position":{"lat":34.3991,"long":-118.473942},"distance_from_sylmar":10476},{"id":185,"locationName":"Seven Seas","address":"7325 Greenbush Ave, North Hollywood, CA 91605","hasEBT":true,"hasMarketMatch":false,"rewards":null,"coupons":null,"contact":null,"websiteURL":null,"position":{"lat":34.203316,"long":-118.426592},"distance_from_sylmar":11949},{"id":186,"locationName":"Super King Market #5","address":"19500 Plummer St, Northridge, CA 91324","hasEBT":true,"hasMarketMatch":false,"rewards":null,"coupons":null,"contact":null,"websiteURL":null,"position":{"lat":34.242403,"long":-118.558282},"distance_from_sylmar":10873},{"id":187,"locationName":"Ralphs","address":"7221 Woodman Ave, Van Nuys, CA 91405","hasEBT":true,"hasMarketMatch":false,"rewards":null,"coupons":null,"contact":null,"websiteURL":null,"position":{"lat":34.20197,"long":-118.432101},"distance_from_sylmar":11942},{"id":188,"locationName":"Family Meat Market","address":"8363 Reseda Blvd, Northridge, CA 91324","hasEBT":true,"hasMarketMatch":false,"rewards":null,"coupons":null,"contact":null,"websiteURL":null,"position":{"lat":34.22254,"long":-118.536689},"distance_from_sylmar":11173},{"id":189,"locationName":"Rocket #0149","address":"Los Angeles, Los Angeles, CA 91405","hasEBT":true,"hasMarketMatch":false,"rewards":null,"coupons":null,"contact":null,"websiteURL":null,"position":{"lat":34.201436,"long":-118.430926},"distance_from_sylmar":12029},{"id":190,"locationName":"Friendly Valley Am/Pm","address":"26409 Sierra Hwy, Santa Clarita, CA 91321","hasEBT":true,"hasMarketMatch":false,"rewards":null,"coupons":null,"contact":null,"websiteURL":null,"position":{"lat":34.400127,"long":-118.473737},"distance_from_sylmar":10589},{"id":191,"locationName":"Northridge Farmers Market & Family Festival","address":"9301 Tampa Ave, Northridge, CA 91324","hasEBT":true,"hasMarketMatch":false,"rewards":null,"coupons":null,"contact":null,"websiteURL":null,"position":{"lat":34.238414,"long":-118.556088},"distance_from_sylmar":11014},{"id":192,"locationName":"Food 4 Less","address":"8035 Webb Ave, North Hollywood, CA 91605","hasEBT":true,"hasMarketMatch":false,"rewards":null,"coupons":null,"contact":null,"websiteURL":null,"position":{"lat":34.216295,"long":-118.389747},"distance_from_sylmar":12216},{"id":193,"locationName":"Vallarta Supermarket #106","address":"16040 Sherman Way, Van Nuys, CA 91406","hasEBT":true,"hasMarketMatch":false,"rewards":null,"coupons":null,"contact":null,"websiteURL":null,"position":{"lat":34.200342,"long":-118.482859},"distance_from_sylmar":11749},{"id":194,"locationName":"Ralphs Grocery Company","address":"17250 Saticoy St, Van Nuys, CA 91406","hasEBT":true,"hasMarketMatch":false,"rewards":null,"coupons":null,"contact":null,"websiteURL":null,"position":{"lat":34.206995,"long":-118.508885},"distance_from_sylmar":11564},{"id":195,"locationName":"Lyons 76","address":"22917 Lyons Ave, Santa Clarita, CA 91321","hasEBT":true,"hasMarketMatch":false,"rewards":null,"coupons":null,"contact":null,"websiteURL":null,"position":{"lat":34.380536,"long":-118.533674},"distance_from_sylmar":10355},{"id":196,"locationName":"Nellie's Bakery","address":"13630 Sherman Way, Van Nuys, CA 91405","hasEBT":true,"hasMarketMatch":false,"rewards":null,"coupons":null,"contact":null,"websiteURL":null,"position":{"lat":34.200953,"long":-118.429956},"distance_from_sylmar":12106},{"id":197,"locationName":"Rite Aid","address":"17266 Saticoy St, Van Nuys, CA 91406","hasEBT":true,"hasMarketMatch":false,"rewards":null,"coupons":null,"contact":null,"websiteURL":null,"position":{"lat":34.207044,"long":-118.509478},"distance_from_sylmar":11577},{"id":198,"locationName":"Sun Valley Grocery Outet #290","address":"8920 Glenoaks Blvd, Sun Valley, CA 91352","hasEBT":true,"hasMarketMatch":false,"rewards":null,"coupons":null,"contact":null,"websiteURL":null,"position":{"lat":34.231632,"long":-118.36747},"distance_from_sylmar":12327},{"id":199,"locationName":"Sherman Way Market Place","address":"13624 Sherman Way, Van Nuys, CA 91405","hasEBT":true,"hasMarketMatch":false,"rewards":null,"coupons":null,"contact":null,"websiteURL":null,"position":{"lat":34.200951,"long":-118.429568},"distance_from_sylmar":12117},{"id":200,"locationName":"Rocket #0634","address":"8247 Reseda Blvd, Northridge, CA 91324","hasEBT":true,"hasMarketMatch":false,"rewards":null,"coupons":null,"contact":null,"websiteURL":null,"position":{"lat":34.220395,"long":-118.536595},"distance_from_sylmar":11366},{"id":201,"locationName":"Big Lots #4623","address":"8960 Tampa Ave, Northridge, CA 91324","hasEBT":true,"hasMarketMatch":false,"rewards":null,"coupons":null,"contact":null,"websiteURL":null,"position":{"lat":34.232741,"long":-118.552349},"distance_from_sylmar":11207},{"id":202,"locationName":"El Progreso Supermarket","address":"19047 Parthenia St, Northridge, CA 91324","hasEBT":true,"hasMarketMatch":false,"rewards":null,"coupons":null,"contact":null,"websiteURL":null,"position":{"lat":34.228692,"long":-118.548655},"distance_from_sylmar":11309},{"id":203,"locationName":"Costco Wholesale #437","address":"8810 Tampa Ave, Northridge, CA 91324","hasEBT":true,"hasMarketMatch":false,"rewards":null,"coupons":null,"contact":null,"websiteURL":null,"position":{"lat":34.230759,"long":-118.551056},"distance_from_sylmar":11286},{"id":204,"locationName":"Newhall Market","address":"24617 Arch St, Santa Clarita, CA 91321","hasEBT":true,"hasMarketMatch":false,"rewards":null,"coupons":null,"contact":null,"websiteURL":null,"position":{"lat":34.384661,"long":-118.52931},"distance_from_sylmar":10509},{"id":205,"locationName":"Lorenzo Corporation","address":"19061 Parthenia St, Northridge, CA 91324","hasEBT":true,"hasMarketMatch":false,"rewards":null,"coupons":null,"contact":null,"websiteURL":null,"position":{"lat":34.228733,"long":-118.549043},"distance_from_sylmar":11329},{"id":206,"locationName":"Top Produce Market","address":"6953 1/2 Van Nuys Blvd #7444, Van Nuys, CA 91405","hasEBT":true,"hasMarketMatch":false,"rewards":null,"coupons":null,"contact":null,"websiteURL":null,"position":{"lat":34.19715,"long":-118.448842},"distance_from_sylmar":12146},{"id":207,"locationName":"Food 4 Less","address":"16530 Sherman Way, Van Nuys, CA 91406","hasEBT":true,"hasMarketMatch":false,"rewards":null,"coupons":null,"contact":null,"websiteURL":null,"position":{"lat":34.200707,"long":-118.494187},"distance_from_sylmar":11878},{"id":208,"locationName":"Carniceria Chapala","address":"7901 Lankershim Blvd, North Hollywood, CA 91605","hasEBT":true,"hasMarketMatch":false,"rewards":null,"coupons":null,"contact":null,"websiteURL":null,"position":{"lat":34.214159,"long":-118.38824},"distance_from_sylmar":12490},{"id":209,"locationName":"Aldi #79057","address":"19350 Nordhoff St, Northridge, CA 91324","hasEBT":true,"hasMarketMatch":false,"rewards":null,"coupons":null,"contact":null,"websiteURL":null,"position":{"lat":34.233778,"long":-118.555876},"distance_from_sylmar":11354},{"id":210,"locationName":"Whole Foods Market #10695","address":"20209 Rinaldi St, Porter Ranch, CA 91326","hasEBT":true,"hasMarketMatch":false,"rewards":null,"coupons":null,"contact":null,"websiteURL":null,"position":{"lat":34.274501,"long":-118.5811},"distance_from_sylmar":10974},{"id":211,"locationName":"Continental Bakery","address":"12105 Saticoy St, North Hollywood, CA 91605","hasEBT":true,"hasMarketMatch":false,"rewards":null,"coupons":null,"contact":null,"websiteURL":null,"position":{"lat":34.209016,"long":-118.397027},"distance_from_sylmar":12521},{"id":212,"locationName":"Stater Bros. Markets","address":"26900 Sierra Hwy, Santa Clarita, CA 91321","hasEBT":true,"hasMarketMatch":false,"rewards":null,"coupons":null,"contact":null,"websiteURL":null,"position":{"lat":34.403922,"long":-118.464793},"distance_from_sylmar":11000},{"id":213,"locationName":"Sunland Produce","address":"8840 Glenoaks Blvd, Sun Valley, CA 91352","hasEBT":true,"hasMarketMatch":false,"rewards":null,"coupons":null,"contact":null,"websiteURL":null,"position":{"lat":34.229582,"long":-118.365461},"distance_from_sylmar":12617},{"id":214,"locationName":"Masis Bakery #2","address":"8725 Sunland Blvd, Sun Valley, CA 91352","hasEBT":true,"hasMarketMatch":false,"rewards":null,"coupons":null,"contact":null,"websiteURL":null,"position":{"lat":34.228329,"long":-118.366717},"distance_from_sylmar":12625},{"id":215,"locationName":"99 Cent Only Store #435","address":"8750 Tampa Ave, Northridge, CA 91324","hasEBT":true,"hasMarketMatch":false,"rewards":null,"coupons":null,"contact":null,"websiteURL":null,"position":{"lat":34.22965,"long":-118.552719},"distance_from_sylmar":11481},{"id":216,"locationName":"La Carncieria San Fernando #7","address":"19535 Nordhoff St, Northridge, CA 91324","hasEBT":true,"hasMarketMatch":false,"rewards":null,"coupons":null,"contact":null,"websiteURL":null,"position":{"lat":34.236255,"long":-118.559417},"distance_from_sylmar":11402},{"id":217,"locationName":"Reseda Certified Farmers Market #8185918161","address":"8055 Reseda Blvd, Reseda, CA 91335","hasEBT":true,"hasMarketMatch":false,"rewards":null,"coupons":null,"contact":null,"websiteURL":null,"position":{"lat":34.217196,"long":-118.536711},"distance_from_sylmar":11669},{"id":218,"locationName":"El Rancherito Restaurant & Market","address":"17734 Saticoy St, Reseda, CA 91335","hasEBT":true,"hasMarketMatch":false,"rewards":null,"coupons":null,"contact":null,"websiteURL":null,"position":{"lat":34.208088,"long":-118.520135},"distance_from_sylmar":11832},{"id":219,"locationName":"Costco Wholesale #447","address":"18649 Va Princessa, Santa Clarita, CA 91387","hasEBT":true,"hasMarketMatch":false,"rewards":null,"coupons":null,"contact":null,"websiteURL":null,"position":{"lat":34.404608,"long":-118.46176},"distance_from_sylmar":11086},{"id":220,"locationName":"Reseda Ranch Service Station","address":"8000 Reseda Blvd, Reseda, CA 91335","hasEBT":true,"hasMarketMatch":false,"rewards":null,"coupons":null,"contact":null,"websiteURL":null,"position":{"lat":34.216024,"long":-118.535589},"distance_from_sylmar":11723},{"id":221,"locationName":"Royal Fresh","address":"12811 Sherman Way, North Hollywood, CA 91605","hasEBT":true,"hasMarketMatch":false,"rewards":null,"coupons":null,"contact":null,"websiteURL":null,"position":{"lat":34.201935,"long":-118.412568},"distance_from_sylmar":12558},{"id":222,"locationName":"A Class Ice Cream Mini Market Food","address":"6826 Kester Ave, Van Nuys, CA 91405","hasEBT":true,"hasMarketMatch":false,"rewards":null,"coupons":null,"contact":null,"websiteURL":null,"position":{"lat":34.194672,"long":-118.457167},"distance_from_sylmar":12335},{"id":223,"locationName":"El Super","address":"12727 Sherman Way, North Hollywood, CA 91605","hasEBT":true,"hasMarketMatch":false,"rewards":null,"coupons":null,"contact":null,"websiteURL":null,"position":{"lat":34.202497,"long":-118.410651},"distance_from_sylmar":12574},{"id":224,"locationName":"La Ternera Market Inc","address":"6841 Lennox Ave, Van Nuys, CA 91405","hasEBT":true,"hasMarketMatch":false,"rewards":null,"coupons":null,"contact":null,"websiteURL":null,"position":{"lat":34.195075,"long":-118.446161},"distance_from_sylmar":12411},{"id":225,"locationName":"Bangluck Market N. Hollywood","address":"12980 Sherman Way, North Hollywood, CA 91605","hasEBT":true,"hasMarketMatch":false,"rewards":null,"coupons":null,"contact":null,"websiteURL":null,"position":{"lat":34.200806,"long":-118.415626},"distance_from_sylmar":12563},{"id":226,"locationName":"99 Cents Only Stores  #61","address":"12711 Sherman Way, North Hollywood, CA 91605","hasEBT":true,"hasMarketMatch":false,"rewards":null,"coupons":null,"contact":null,"websiteURL":null,"position":{"lat":34.202304,"long":-118.40983},"distance_from_sylmar":12625},{"id":227,"locationName":"Farmers Produce Co","address":"12904 Sherman Way, North Hollywood, CA 91605","hasEBT":true,"hasMarketMatch":false,"rewards":null,"coupons":null,"contact":null,"websiteURL":null,"position":{"lat":34.200714,"long":-118.414325},"distance_from_sylmar":12619},{"id":228,"locationName":"Vardashen Market","address":"12904 Sherman Way, North Hollywood, CA 91605","hasEBT":true,"hasMarketMatch":false,"rewards":null,"coupons":null,"contact":null,"websiteURL":null,"position":{"lat":34.200714,"long":-118.414325},"distance_from_sylmar":12619},{"id":229,"locationName":"Speedway #1494","address":"19301 Parthenia St, Northridge, CA 91324","hasEBT":true,"hasMarketMatch":false,"rewards":null,"coupons":null,"contact":null,"websiteURL":null,"position":{"lat":34.228563,"long":-118.553967},"distance_from_sylmar":11648},{"id":230,"locationName":"Aldi #79108","address":"24860 Orchard Village Rd, Santa Clarita, CA 91355","hasEBT":true,"hasMarketMatch":false,"rewards":null,"coupons":null,"contact":null,"websiteURL":null,"position":{"lat":34.381724,"long":-118.540469},"distance_from_sylmar":10837},{"id":231,"locationName":"99 Cents Only Stores #81","address":"6755 Van Nuys Blvd, Van Nuys, CA 91405","hasEBT":true,"hasMarketMatch":false,"rewards":null,"coupons":null,"contact":null,"websiteURL":null,"position":{"lat":34.193799,"long":-118.448935},"distance_from_sylmar":12514},{"id":232,"locationName":"Blackjack Market","address":"12643 Sherman Way, North Hollywood, CA 91605","hasEBT":true,"hasMarketMatch":false,"rewards":null,"coupons":null,"contact":null,"websiteURL":null,"position":{"lat":34.201878,"long":-118.408506},"distance_from_sylmar":12720},{"id":233,"locationName":"Ben's Mini Market","address":"14131 Vanowen St, Van Nuys, CA 91405","hasEBT":true,"hasMarketMatch":false,"rewards":null,"coupons":null,"contact":null,"websiteURL":null,"position":{"lat":34.194156,"long":-118.441022},"distance_from_sylmar":12596},{"id":234,"locationName":"New Delhi Spiceland","address":"18900 Roscoe Blvd, Northridge, CA 91324","hasEBT":true,"hasMarketMatch":false,"rewards":null,"coupons":null,"contact":null,"websiteURL":null,"position":{"lat":34.2203,"long":-118.545047},"distance_from_sylmar":11826},{"id":235,"locationName":"Vallarta Supermarket","address":"23449 Lyons Ave, Valencia, CA 91355","hasEBT":true,"hasMarketMatch":false,"rewards":null,"coupons":null,"contact":null,"websiteURL":null,"position":{"lat":34.380471,"long":-118.543593},"distance_from_sylmar":10909},{"id":236,"locationName":"Store #63233","address":"14114 Vanowen St, Van Nuys, CA 91405","hasEBT":true,"hasMarketMatch":false,"rewards":null,"coupons":null,"contact":null,"websiteURL":null,"position":{"lat":34.193686,"long":-118.440588},"distance_from_sylmar":12655},{"id":237,"locationName":"Quickie Mini Mart","address":"15700 Vanowen St, Van Nuys, CA 91406","hasEBT":true,"hasMarketMatch":false,"rewards":null,"coupons":null,"contact":null,"websiteURL":null,"position":{"lat":34.19342,"long":-118.475151},"distance_from_sylmar":12455},{"id":238,"locationName":"Smart & Final #528","address":"10340 Mason Ave, Chatsworth, CA 91311","hasEBT":true,"hasMarketMatch":false,"rewards":null,"coupons":null,"contact":null,"websiteURL":null,"position":{"lat":34.258489,"long":-118.578658},"distance_from_sylmar":11452},{"id":239,"locationName":"Neil Full Stop Market","address":"14054 Vanowen St, Van Nuys, CA 91405","hasEBT":true,"hasMarketMatch":false,"rewards":null,"coupons":null,"contact":null,"websiteURL":null,"position":{"lat":34.193757,"long":-118.439463},"distance_from_sylmar":12668},{"id":240,"locationName":"Dollar Dollar Plus","address":"18121 Saticoy St, Reseda, CA 91335","hasEBT":true,"hasMarketMatch":false,"rewards":null,"coupons":null,"contact":null,"websiteURL":null,"position":{"lat":34.209045,"long":-118.528087},"distance_from_sylmar":12054},{"id":241,"locationName":"G&H Grewal Inc Dba K's Mini Market","address":"16061 Vanowen St, Van Nuys, CA 91406","hasEBT":true,"hasMarketMatch":false,"rewards":null,"coupons":null,"contact":null,"websiteURL":null,"position":{"lat":34.194417,"long":-118.483226},"distance_from_sylmar":12408},{"id":242,"locationName":"Trader Joe's","address":"10330 Mason Ave, Chatsworth, CA 91311","hasEBT":true,"hasMarketMatch":false,"rewards":null,"coupons":null,"contact":null,"websiteURL":null,"position":{"lat":34.258255,"long":-118.578795},"distance_from_sylmar":11475},{"id":243,"locationName":"G&M #77","address":"18056 Saticoy St, Reseda, CA 91335","hasEBT":true,"hasMarketMatch":false,"rewards":null,"coupons":null,"contact":null,"websiteURL":null,"position":{"lat":34.208095,"long":-118.526903},"distance_from_sylmar":12099},{"id":244,"locationName":"Smart & Final #468","address":"23640 Lyons Ave, Santa Clarita, CA 91321","hasEBT":true,"hasMarketMatch":false,"rewards":null,"coupons":null,"contact":null,"websiteURL":null,"position":{"lat":34.378345,"long":-118.548083},"distance_from_sylmar":11001},{"id":245,"locationName":"Vallarta Supermarkets","address":"13715 Vanowen St, Van Nuys, CA 91405","hasEBT":true,"hasMarketMatch":false,"rewards":null,"coupons":null,"contact":null,"websiteURL":null,"position":{"lat":34.194336,"long":-118.43196},"distance_from_sylmar":12765},{"id":246,"locationName":"Dave's Meat Shop","address":"6807 Woodman Ave, Van Nuys, CA 91405","hasEBT":true,"hasMarketMatch":false,"rewards":null,"coupons":null,"contact":null,"websiteURL":null,"position":{"lat":34.194363,"long":-118.431668},"distance_from_sylmar":12769},{"id":247,"locationName":"Jons Market","address":"6655 Van Nuys Blvd, Van Nuys, CA 91405","hasEBT":true,"hasMarketMatch":false,"rewards":null,"coupons":null,"contact":null,"websiteURL":null,"position":{"lat":34.192226,"long":-118.449257},"distance_from_sylmar":12683},{"id":248,"locationName":"Vons","address":"20440 Devonshire St, Chatsworth, CA 91311","hasEBT":true,"hasMarketMatch":false,"rewards":null,"coupons":null,"contact":null,"websiteURL":null,"position":{"lat":34.256707,"long":-118.578613},"distance_from_sylmar":11540},{"id":249,"locationName":"Flying Tiger Market","address":"18760 Flying Tiger Dr, Santa Clarita, CA 91387","hasEBT":true,"hasMarketMatch":false,"rewards":null,"coupons":null,"contact":null,"websiteURL":null,"position":{"lat":34.40771,"long":-118.460101},"distance_from_sylmar":11440},{"id":250,"locationName":"Sierra Meat & Bbq Inc #426","address":"27131 Sierra Hwy, Santa Clarita, CA 91351","hasEBT":true,"hasMarketMatch":false,"rewards":null,"coupons":null,"contact":null,"websiteURL":null,"position":{"lat":34.407833,"long":-118.462096},"distance_from_sylmar":11443},{"id":251,"locationName":"La Pulperia","address":"13653 Vanowen St, Van Nuys, CA 91405","hasEBT":true,"hasMarketMatch":false,"rewards":null,"coupons":null,"contact":null,"websiteURL":null,"position":{"lat":34.19427,"long":-118.430739},"distance_from_sylmar":12802},{"id":252,"locationName":"Salcedos Market","address":"8432 Sunland Blvd, Sun Valley, CA 91352","hasEBT":true,"hasMarketMatch":false,"rewards":null,"coupons":null,"contact":null,"websiteURL":null,"position":{"lat":34.224221,"long":-118.36516},"distance_from_sylmar":13043},{"id":253,"locationName":"Target Store","address":"8840 Corbin Ave, Northridge, CA 91324","hasEBT":true,"hasMarketMatch":false,"rewards":null,"coupons":null,"contact":null,"websiteURL":null,"position":{"lat":34.231156,"long":-118.56029},"distance_from_sylmar":11849},{"id":254,"locationName":"Lankershim Mini Market","address":"7614 Lankershim Blvd, North Hollywood, CA 91605","hasEBT":true,"hasMarketMatch":false,"rewards":null,"coupons":null,"contact":null,"websiteURL":null,"position":{"lat":34.208924,"long":-118.387508},"distance_from_sylmar":13005},{"id":255,"locationName":"Vip Petroleum Inc","address":"8900 Corbin Ave, Northridge, CA 91324","hasEBT":true,"hasMarketMatch":false,"rewards":null,"coupons":null,"contact":null,"websiteURL":null,"position":{"lat":34.23241,"long":-118.562084},"distance_from_sylmar":11872},{"id":256,"locationName":"Yerevan Marketplace Inc.","address":"13646 Vanowen St, Van Nuys, CA 91405","hasEBT":true,"hasMarketMatch":false,"rewards":null,"coupons":null,"contact":null,"websiteURL":null,"position":{"lat":34.193604,"long":-118.430526},"distance_from_sylmar":12878},{"id":257,"locationName":"Alta Dena Market Drive Thru","address":"16435 Vanowen St, Van Nuys, CA 91406","hasEBT":true,"hasMarketMatch":false,"rewards":null,"coupons":null,"contact":null,"websiteURL":null,"position":{"lat":34.194156,"long":-118.49146},"distance_from_sylmar":12547},{"id":258,"locationName":"Rite Aid","address":"10120 Mason Ave, Chatsworth, CA 91311","hasEBT":true,"hasMarketMatch":false,"rewards":null,"coupons":null,"contact":null,"websiteURL":null,"position":{"lat":34.254609,"long":-118.579342},"distance_from_sylmar":11710},{"id":259,"locationName":"Valley Han Kook Market, Inc.","address":"17643 Sherman Way, Van Nuys, CA 91406","hasEBT":true,"hasMarketMatch":false,"rewards":null,"coupons":null,"contact":null,"websiteURL":null,"position":{"lat":34.201527,"long":-118.518149},"distance_from_sylmar":12433},{"id":260,"locationName":"Dollar Dollar","address":"8045 Vineland Ave, Sun Valley, CA 91352","hasEBT":true,"hasMarketMatch":false,"rewards":null,"coupons":null,"contact":null,"websiteURL":null,"position":{"lat":34.217221,"long":-118.37093},"distance_from_sylmar":13230},{"id":261,"locationName":"G&M Oil #177","address":"17707 Sherman Way, Reseda, CA 91335","hasEBT":true,"hasMarketMatch":false,"rewards":null,"coupons":null,"contact":null,"websiteURL":null,"position":{"lat":34.201431,"long":-118.518988},"distance_from_sylmar":12472},{"id":262,"locationName":"Pisco Sour Market & Peruvian Restaurant","address":"19239 Roscoe Blvd, Northridge, CA 91324","hasEBT":true,"hasMarketMatch":false,"rewards":null,"coupons":null,"contact":null,"websiteURL":null,"position":{"lat":34.220933,"long":-118.552753},"distance_from_sylmar":12211},{"id":263,"locationName":"Mechta North Inc","address":"17757 Sherman Way, Reseda, CA 91335","hasEBT":true,"hasMarketMatch":false,"rewards":null,"coupons":null,"contact":null,"websiteURL":null,"position":{"lat":34.201492,"long":-118.520562},"distance_from_sylmar":12522},{"id":264,"locationName":"Rocket #0237","address":"17704 Sherman Way, Reseda, CA 91335","hasEBT":true,"hasMarketMatch":false,"rewards":null,"coupons":null,"contact":null,"websiteURL":null,"position":{"lat":34.200764,"long":-118.518943},"distance_from_sylmar":12539},{"id":265,"locationName":"A One Afghan Market","address":"7614 Reseda Blvd, Reseda, CA 91335","hasEBT":true,"hasMarketMatch":false,"rewards":null,"coupons":null,"contact":null,"websiteURL":null,"position":{"lat":34.208793,"long":-118.535316},"distance_from_sylmar":12399},{"id":266,"locationName":"Alta Dena Dairy","address":"8321 Tampa Ave, Northridge, CA 91324","hasEBT":true,"hasMarketMatch":false,"rewards":null,"coupons":null,"contact":null,"websiteURL":null,"position":{"lat":34.221349,"long":-118.55402},"distance_from_sylmar":12251},{"id":267,"locationName":"Asian Spot","address":"8331 Tampa Ave, Northridge, CA 91324","hasEBT":true,"hasMarketMatch":false,"rewards":null,"coupons":null,"contact":null,"websiteURL":null,"position":{"lat":34.2213,"long":-118.554009},"distance_from_sylmar":12254},{"id":268,"locationName":"Chatsworth Farmers Market","address":"9901 Mason Ave, Chatsworth, CA 91311","hasEBT":true,"hasMarketMatch":false,"rewards":null,"coupons":null,"contact":null,"websiteURL":null,"position":{"lat":34.251082,"long":-118.580085},"distance_from_sylmar":11962},{"id":269,"locationName":"Extra-Mile 5434","address":"20450 Lassen St, Chatsworth, CA 91311","hasEBT":true,"hasMarketMatch":false,"rewards":null,"coupons":null,"contact":null,"websiteURL":null,"position":{"lat":34.249631,"long":-118.579421},"distance_from_sylmar":11992},{"id":270,"locationName":"7eleven #13899","address":"9850 Mason Ave, Chatsworth, CA 91311","hasEBT":true,"hasMarketMatch":false,"rewards":null,"coupons":null,"contact":null,"websiteURL":null,"position":{"lat":34.249402,"long":-118.579365},"distance_from_sylmar":12001},{"id":271,"locationName":"Carniceria Don Juan #2","address":"12922 Vanowen St, North Hollywood, CA 91605","hasEBT":true,"hasMarketMatch":false,"rewards":null,"coupons":null,"contact":null,"websiteURL":null,"position":{"lat":34.193756,"long":-118.41469},"distance_from_sylmar":13324},{"id":272,"locationName":"99 Ranch Market","address":"6450 Sepulveda Blvd, Van Nuys, CA 91411","hasEBT":true,"hasMarketMatch":false,"rewards":null,"coupons":null,"contact":null,"websiteURL":null,"position":{"lat":34.187759,"long":-118.465445},"distance_from_sylmar":13068},{"id":273,"locationName":"Haig's Kabob House","address":"12912 Vanowen St, North Hollywood, CA 91605","hasEBT":true,"hasMarketMatch":false,"rewards":null,"coupons":null,"contact":null,"websiteURL":null,"position":{"lat":34.193723,"long":-118.414313},"distance_from_sylmar":13340},{"id":274,"locationName":"Anush Bakery & Market","address":"6770 Coldwater Canyon Ave, North Hollywood, CA 91606","hasEBT":true,"hasMarketMatch":false,"rewards":null,"coupons":null,"contact":null,"websiteURL":null,"position":{"lat":34.193635,"long":-118.413344},"distance_from_sylmar":13382},{"id":275,"locationName":"Vons","address":"24160 Lyons Ave, Newhall, CA 91321","hasEBT":true,"hasMarketMatch":false,"rewards":null,"coupons":null,"contact":null,"websiteURL":null,"position":{"lat":34.377997,"long":-118.557274},"distance_from_sylmar":11558},{"id":276,"locationName":"Grocery Outlet Of Chatsworth #371","address":"9805 Mason Ave, Chatsworth, CA 91311","hasEBT":true,"hasMarketMatch":false,"rewards":null,"coupons":null,"contact":null,"websiteURL":null,"position":{"lat":34.248231,"long":-118.580488},"distance_from_sylmar":12157},{"id":277,"locationName":"Los 3 Potrillos Carniceria","address":"14920 Victory Blvd, Van Nuys, CA 91411","hasEBT":true,"hasMarketMatch":false,"rewards":null,"coupons":null,"contact":null,"websiteURL":null,"position":{"lat":34.186426,"long":-118.458146},"distance_from_sylmar":13244},{"id":278,"locationName":"99 Cents Only Stores #60","address":"24200 Lyons Ave, Santa Clarita, CA 91321","hasEBT":true,"hasMarketMatch":false,"rewards":null,"coupons":null,"contact":null,"websiteURL":null,"position":{"lat":34.377747,"long":-118.558733},"distance_from_sylmar":11634},{"id":279,"locationName":"Q Market & Produce, Inc.","address":"17261 Vanowen St, Lake Balboa, CA 91406","hasEBT":true,"hasMarketMatch":false,"rewards":null,"coupons":null,"contact":null,"websiteURL":null,"position":{"lat":34.194137,"long":-118.509318},"distance_from_sylmar":12937},{"id":280,"locationName":"Jons Market","address":"18135 Sherman Way, Reseda, CA 91335","hasEBT":true,"hasMarketMatch":false,"rewards":null,"coupons":null,"contact":null,"websiteURL":null,"position":{"lat":34.202056,"long":-118.528908},"distance_from_sylmar":12783},{"id":281,"locationName":"Daniel Glatt Meat Inc.","address":"17263 Vanowen St, Lake Balboa, CA 91406","hasEBT":true,"hasMarketMatch":false,"rewards":null,"coupons":null,"contact":null,"websiteURL":null,"position":{"lat":34.194089,"long":-118.509432},"distance_from_sylmar":12945},{"id":282,"locationName":"El Rancherito Restaurant & Carniceria","address":"6457 Woodman Ave, Van Nuys, CA 91401","hasEBT":true,"hasMarketMatch":false,"rewards":null,"coupons":null,"contact":null,"websiteURL":null,"position":{"lat":34.188357,"long":-118.431656},"distance_from_sylmar":13416},{"id":283,"locationName":"Carniceria Don Juan #1","address":"14103 Victory Blvd, Van Nuys, CA 91401","hasEBT":true,"hasMarketMatch":false,"rewards":null,"coupons":null,"contact":null,"websiteURL":null,"position":{"lat":34.187094,"long":-118.440669},"distance_from_sylmar":13374},{"id":284,"locationName":"99 Cents Only Stores  #47","address":"18215 Sherman Way, Reseda, CA 91335","hasEBT":true,"hasMarketMatch":false,"rewards":null,"coupons":null,"contact":null,"websiteURL":null,"position":{"lat":34.201973,"long":-118.529991},"distance_from_sylmar":12836},{"id":285,"locationName":"Extra-Mile 5487","address":"17300 Vanowen St, Van Nuys, CA 91406","hasEBT":true,"hasMarketMatch":false,"rewards":null,"coupons":null,"contact":null,"websiteURL":null,"position":{"lat":34.193594,"long":-118.510239},"distance_from_sylmar":13020},{"id":286,"locationName":"Gayanes Grocery","address":"14102 Victory Blvd, Van Nuys, CA 91401","hasEBT":true,"hasMarketMatch":false,"rewards":null,"coupons":null,"contact":null,"websiteURL":null,"position":{"lat":34.186271,"long":-118.440286},"distance_from_sylmar":13470},{"id":287,"locationName":"Tigranakert Market","address":"6412 Matilija Ave, Van Nuys, CA 91401","hasEBT":true,"hasMarketMatch":false,"rewards":null,"coupons":null,"contact":null,"websiteURL":null,"position":{"lat":34.187215,"long":-118.43315},"distance_from_sylmar":13506},{"id":288,"locationName":"Food 4 Less","address":"19200 Soledad Canyon Rd, Canyon Country, CA 91351","hasEBT":true,"hasMarketMatch":false,"rewards":null,"coupons":null,"contact":null,"websiteURL":null,"position":{"lat":34.414088,"long":-118.470885},"distance_from_sylmar":12132},{"id":289,"locationName":"99 Cents Only Stores #450","address":"16107 Victory Blvd, Van Nuys, CA 91406","hasEBT":true,"hasMarketMatch":false,"rewards":null,"coupons":null,"contact":null,"websiteURL":null,"position":{"lat":34.187012,"long":-118.485037},"distance_from_sylmar":13246},{"id":290,"locationName":"Olympus Market","address":"11663 Sherman Way, North Hollywood, CA 91605","hasEBT":true,"hasMarketMatch":false,"rewards":null,"coupons":null,"contact":null,"websiteURL":null,"position":{"lat":34.201347,"long":-118.386526},"distance_from_sylmar":13757},{"id":291,"locationName":"Speedway #43093","address":"24440 Lyons Ave, Santa Clarita, CA 91321","hasEBT":true,"hasMarketMatch":false,"rewards":null,"coupons":null,"contact":null,"websiteURL":null,"position":{"lat":34.378034,"long":-118.562153},"distance_from_sylmar":11884},{"id":292,"locationName":"The 97 Cents Store, Inc","address":"27544 Sierra Hwy, Santa Clarita, CA 91351","hasEBT":true,"hasMarketMatch":false,"rewards":null,"coupons":null,"contact":null,"websiteURL":null,"position":{"lat":34.415502,"long":-118.455649},"distance_from_sylmar":12335},{"id":293,"locationName":"Ralphs Grocery Company","address":"10455 Sunland Blvd, Sunland, CA 91040","hasEBT":true,"hasMarketMatch":false,"rewards":null,"coupons":null,"contact":null,"websiteURL":null,"position":{"lat":34.260536,"long":-118.326744},"distance_from_sylmar":13882},{"id":294,"locationName":"Vallarta Supermarket #1","address":"13051 Victory Blvd, North Hollywood, CA 91606","hasEBT":true,"hasMarketMatch":false,"rewards":null,"coupons":null,"contact":null,"websiteURL":null,"position":{"lat":34.188987,"long":-118.416904},"distance_from_sylmar":13748},{"id":295,"locationName":"Carniceria Corona Market","address":"18326 Sherman Way, Reseda, CA 91335","hasEBT":true,"hasMarketMatch":false,"rewards":null,"coupons":null,"contact":null,"websiteURL":null,"position":{"lat":34.200869,"long":-118.53261},"distance_from_sylmar":13054},{"id":296,"locationName":"Yans Food Market","address":"13616 Victory Blvd, Van Nuys, CA 91401","hasEBT":true,"hasMarketMatch":false,"rewards":null,"coupons":null,"contact":null,"websiteURL":null,"position":{"lat":34.186187,"long":-118.42932},"distance_from_sylmar":13704},{"id":297,"locationName":"Ralphs","address":"19340 Soledad Canyon Rd, Canyon Country, CA 91351","hasEBT":true,"hasMarketMatch":false,"rewards":null,"coupons":null,"contact":null,"websiteURL":null,"position":{"lat":34.415629,"long":-118.473137},"distance_from_sylmar":12310},{"id":298,"locationName":"Rite Aid","address":"10465 Sunland Blvd, Sunland, CA 91040","hasEBT":true,"hasMarketMatch":false,"rewards":null,"coupons":null,"contact":null,"websiteURL":null,"position":{"lat":34.260514,"long":-118.326196},"distance_from_sylmar":13930},{"id":299,"locationName":"Qik Market","address":"7601 Vineland Ave, Sun Valley, CA 91352","hasEBT":true,"hasMarketMatch":false,"rewards":null,"coupons":null,"contact":null,"websiteURL":null,"position":{"lat":34.208694,"long":-118.370894},"distance_from_sylmar":13949},{"id":300,"locationName":"New Bangluck Corporation","address":"7235 Reseda Blvd, Reseda, CA 91335","hasEBT":true,"hasMarketMatch":false,"rewards":null,"coupons":null,"contact":null,"websiteURL":null,"position":{"lat":34.202228,"long":-118.536351},"distance_from_sylmar":13082},{"id":301,"locationName":"Island Pacific Seafood Market #19385","address":"19385 Soledad Canyon Rd, Santa Clarita, CA 91351","hasEBT":true,"hasMarketMatch":false,"rewards":null,"coupons":null,"contact":null,"websiteURL":null,"position":{"lat":34.415898,"long":-118.4742},"distance_from_sylmar":12344},{"id":302,"locationName":"Arax Grocery & Deli","address":"17644 Vanowen St, Van Nuys, CA 91406","hasEBT":true,"hasMarketMatch":false,"rewards":null,"coupons":null,"contact":null,"websiteURL":null,"position":{"lat":34.193452,"long":-118.517643},"distance_from_sylmar":13255},{"id":303,"locationName":"Speedway #4447","address":"19301 Soledad Canyon Rd, Santa Clarita, CA 91351","hasEBT":true,"hasMarketMatch":false,"rewards":null,"coupons":null,"contact":null,"websiteURL":null,"position":{"lat":34.416203,"long":-118.472756},"distance_from_sylmar":12372},{"id":304,"locationName":"Canyon Market","address":"18257 Soledad Canyon Rd, Canyon Country, CA 91387","hasEBT":true,"hasMarketMatch":false,"rewards":null,"coupons":null,"contact":null,"websiteURL":null,"position":{"lat":34.416612,"long":-118.451584},"distance_from_sylmar":12497},{"id":305,"locationName":"Rocket #0131","address":"7208 Reseda Blvd, Reseda, CA 91335","hasEBT":true,"hasMarketMatch":false,"rewards":null,"coupons":null,"contact":null,"websiteURL":null,"position":{"lat":34.201485,"long":-118.535669},"distance_from_sylmar":13125},{"id":306,"locationName":"Haddad Mobil Mini Mart","address":"18501 Soledad Canyon Rd, Santa Clarita, CA 91351","hasEBT":true,"hasMarketMatch":false,"rewards":null,"coupons":null,"contact":null,"websiteURL":null,"position":{"lat":34.416804,"long":-118.456125},"distance_from_sylmar":12476},{"id":307,"locationName":"Carniceria Los 3 Potrillos #2","address":"6201 Kester Ave, Van Nuys, CA 91411","hasEBT":true,"hasMarketMatch":false,"rewards":null,"coupons":null,"contact":null,"websiteURL":null,"position":{"lat":34.182736,"long":-118.457677},"distance_from_sylmar":13657},{"id":308,"locationName":"Vallarta Supermarket","address":"18571 Soledad Canyon Rd, Canyon Country, CA 91351","hasEBT":true,"hasMarketMatch":false,"rewards":null,"coupons":null,"contact":null,"websiteURL":null,"position":{"lat":34.417051,"long":-118.458064},"distance_from_sylmar":12489},{"id":309,"locationName":"Nick Oil And Market","address":"18003 Soledad Canyon Rd, Santa Clarita, CA 91387","hasEBT":true,"hasMarketMatch":false,"rewards":null,"coupons":null,"contact":null,"websiteURL":null,"position":{"lat":34.416735,"long":-118.447608},"distance_from_sylmar":12559},{"id":310,"locationName":"Aldi #79148","address":"19361 Soledad Canyon Rd, Santa Clarita, CA 91351","hasEBT":true,"hasMarketMatch":false,"rewards":null,"coupons":null,"contact":null,"websiteURL":null,"position":{"lat":34.416556,"long":-118.474352},"distance_from_sylmar":12418},{"id":311,"locationName":"Bombay Market #N/A","address":"21016 Devonshire St, Chatsworth, CA 91311","hasEBT":true,"hasMarketMatch":false,"rewards":null,"coupons":null,"contact":null,"websiteURL":null,"position":{"lat":34.256815,"long":-118.59138},"distance_from_sylmar":12585},{"id":312,"locationName":"Marketa Perez Inc.","address":"12116 Vanowen St, North Hollywood, CA 91605","hasEBT":true,"hasMarketMatch":false,"rewards":null,"coupons":null,"contact":null,"websiteURL":null,"position":{"lat":34.193624,"long":-118.397187},"distance_from_sylmar":14007},{"id":313,"locationName":"Canyon Country Farmers Market","address":"18410 Sierra Hwy, Santa Clarita, CA 91351","hasEBT":true,"hasMarketMatch":false,"rewards":null,"coupons":null,"contact":null,"websiteURL":null,"position":{"lat":34.417612,"long":-118.454481},"distance_from_sylmar":12579},{"id":314,"locationName":"Big Lots #1917","address":"19331 Soledad Canyon Rd, Santa Clarita, CA 91351","hasEBT":true,"hasMarketMatch":false,"rewards":null,"coupons":null,"contact":null,"websiteURL":null,"position":{"lat":34.417254,"long":-118.473166},"distance_from_sylmar":12491},{"id":315,"locationName":"Costco Wholesale #48","address":"6100 Sepulveda Blvd, Van Nuys, CA 91411","hasEBT":true,"hasMarketMatch":false,"rewards":null,"coupons":null,"contact":null,"websiteURL":null,"position":{"lat":34.181816,"long":-118.464398},"distance_from_sylmar":13732},{"id":316,"locationName":"Sams Mini Market","address":"20909 Lassen St, Chatsworth, CA 91311","hasEBT":true,"hasMarketMatch":false,"rewards":null,"coupons":null,"contact":null,"websiteURL":null,"position":{"lat":34.25007,"long":-118.589227},"distance_from_sylmar":12750},{"id":317,"locationName":"Melad Bakery And Deli","address":"18601 Sherman Way, Reseda, CA 91335","hasEBT":true,"hasMarketMatch":false,"rewards":null,"coupons":null,"contact":null,"websiteURL":null,"position":{"lat":34.201362,"long":-118.539158},"distance_from_sylmar":13293},{"id":318,"locationName":"Costco #653","address":"11428 Sherman Way, North Hollywood, CA 91605","hasEBT":true,"hasMarketMatch":false,"rewards":null,"coupons":null,"contact":null,"websiteURL":null,"position":{"lat":34.199778,"long":-118.380161},"distance_from_sylmar":14228},{"id":319,"locationName":"99 Cents Only Store #315","address":"6639 Laurel Canyon Blvd, North Hollywood, CA 91606","hasEBT":true,"hasMarketMatch":false,"rewards":null,"coupons":null,"contact":null,"websiteURL":null,"position":{"lat":34.191399,"long":-118.397461},"distance_from_sylmar":14215},{"id":320,"locationName":"Albertsons","address":"19307 Saticoy St, Reseda, CA 91335","hasEBT":true,"hasMarketMatch":false,"rewards":null,"coupons":null,"contact":null,"websiteURL":null,"position":{"lat":34.209628,"long":-118.554173},"distance_from_sylmar":13280},{"id":321,"locationName":"Katina Bakeries Inc","address":"6631 Laurel Canyon Blvd, North Hollywood, CA 91606","hasEBT":true,"hasMarketMatch":false,"rewards":null,"coupons":null,"contact":null,"websiteURL":null,"position":{"lat":34.191116,"long":-118.396719},"distance_from_sylmar":14274},{"id":322,"locationName":"Palms Marketplace  Inc.","address":"6631 Laurel Canyon Blvd, North Hollywood, CA 91606","hasEBT":true,"hasMarketMatch":false,"rewards":null,"coupons":null,"contact":null,"websiteURL":null,"position":{"lat":34.191116,"long":-118.396719},"distance_from_sylmar":14274},{"id":323,"locationName":"Smart & Final #374","address":"6601 Laurel Canyon Blvd, North Hollywood, CA 91606","hasEBT":true,"hasMarketMatch":false,"rewards":null,"coupons":null,"contact":null,"websiteURL":null,"position":{"lat":34.190789,"long":-118.397506},"distance_from_sylmar":14274},{"id":324,"locationName":"El Mercadito Chalateco","address":"6801 Lankershim Blvd, North Hollywood, CA 91605","hasEBT":true,"hasMarketMatch":false,"rewards":null,"coupons":null,"contact":null,"websiteURL":null,"position":{"lat":34.194252,"long":-118.388332},"distance_from_sylmar":14342},{"id":325,"locationName":"Walmart Supercenter","address":"26471 Carl Boyer Dr, Santa Clarita, CA 91350","hasEBT":true,"hasMarketMatch":false,"rewards":null,"coupons":null,"contact":null,"websiteURL":null,"position":{"lat":34.41393,"long":-118.506113},"distance_from_sylmar":12615},{"id":326,"locationName":"R.L.Dillman Inc","address":"24800 Pico Canyon Rd, Newhall, CA 91381","hasEBT":true,"hasMarketMatch":false,"rewards":null,"coupons":null,"contact":null,"websiteURL":null,"position":{"lat":34.379723,"long":-118.568786},"distance_from_sylmar":12461},{"id":327,"locationName":"Mousaler Inc.","address":"12523 Victory Blvd, North Hollywood, CA 91606","hasEBT":true,"hasMarketMatch":false,"rewards":null,"coupons":null,"contact":null,"websiteURL":null,"position":{"lat":34.187011,"long":-118.406122},"distance_from_sylmar":14318},{"id":328,"locationName":"Habib Halal Meat Market","address":"18845 Sherman Way, Reseda, CA 91335","hasEBT":true,"hasMarketMatch":false,"rewards":null,"coupons":null,"contact":null,"websiteURL":null,"position":{"lat":34.201508,"long":-118.544249},"distance_from_sylmar":13517},{"id":329,"locationName":"Sam's Club","address":"26468 Carl Boyer Dr, Santa Clarita, CA 91350","hasEBT":true,"hasMarketMatch":false,"rewards":null,"coupons":null,"contact":null,"websiteURL":null,"position":{"lat":34.415538,"long":-118.503548},"distance_from_sylmar":12724},{"id":330,"locationName":"Bread Bros","address":"6900 Reseda Blvd, Reseda, CA 91335","hasEBT":true,"hasMarketMatch":false,"rewards":null,"coupons":null,"contact":null,"websiteURL":null,"position":{"lat":34.195974,"long":-118.535598},"distance_from_sylmar":13664},{"id":331,"locationName":"Valley Produce & Deli","address":"18345 Vanowen St, Reseda, CA 91335","hasEBT":true,"hasMarketMatch":false,"rewards":null,"coupons":null,"contact":null,"websiteURL":null,"position":{"lat":34.194553,"long":-118.533266},"distance_from_sylmar":13710},{"id":332,"locationName":"Kosher Super Meat 1","address":"18353 Vanowen St, Reseda, CA 91335","hasEBT":true,"hasMarketMatch":false,"rewards":null,"coupons":null,"contact":null,"websiteURL":null,"position":{"lat":34.194369,"long":-118.533477},"distance_from_sylmar":13737},{"id":333,"locationName":"G&M Oil # 0017","address":"6003 Woodman Ave, Van Nuys, CA 91401","hasEBT":true,"hasMarketMatch":false,"rewards":null,"coupons":null,"contact":null,"websiteURL":null,"position":{"lat":34.179676,"long":-118.431496},"distance_from_sylmar":14358},{"id":334,"locationName":"Stardust Wine & Spirits #1","address":"8534 Foothill Blvd, Sunland, CA 91040","hasEBT":true,"hasMarketMatch":false,"rewards":null,"coupons":null,"contact":null,"websiteURL":null,"position":{"lat":34.259454,"long":-118.319118},"distance_from_sylmar":14581},{"id":335,"locationName":"Onegeneration Encino Cfm","address":"17400 Victory Blvd, Van Nuys, CA 91406","hasEBT":true,"hasMarketMatch":false,"rewards":null,"coupons":null,"contact":null,"websiteURL":null,"position":{"lat":34.185708,"long":-118.51323},"distance_from_sylmar":13940},{"id":336,"locationName":"Ralphs","address":"21431 Devonshire St, Chatsworth, CA 91311","hasEBT":true,"hasMarketMatch":false,"rewards":null,"coupons":null,"contact":null,"websiteURL":null,"position":{"lat":34.258044,"long":-118.59849},"distance_from_sylmar":13124},{"id":337,"locationName":"Jons Marketplace","address":"20151 Roscoe Blvd, Winnetka, CA 91306","hasEBT":true,"hasMarketMatch":false,"rewards":null,"coupons":null,"contact":null,"websiteURL":null,"position":{"lat":34.22103,"long":-118.572777},"distance_from_sylmar":13459},{"id":338,"locationName":"Mother's Nutritional Center #602","address":"6424 Bellingham Ave, North Hollywood, CA 91606","hasEBT":true,"hasMarketMatch":false,"rewards":null,"coupons":null,"contact":null,"websiteURL":null,"position":{"lat":34.187466,"long":-118.398614},"distance_from_sylmar":14560},{"id":339,"locationName":"Sweet 1 Bakery","address":"13668 Oxnard St, Van Nuys, CA 91401","hasEBT":true,"hasMarketMatch":false,"rewards":null,"coupons":null,"contact":null,"websiteURL":null,"position":{"lat":34.179055,"long":-118.430805},"distance_from_sylmar":14440},{"id":340,"locationName":"Target Store #T3427","address":"12121 Victory Blvd, North Hollywood, CA 91606","hasEBT":true,"hasMarketMatch":false,"rewards":null,"coupons":null,"contact":null,"websiteURL":null,"position":{"lat":34.187594,"long":-118.397506},"distance_from_sylmar":14592},{"id":341,"locationName":"Food 4 Less","address":"18318 Vanowen St, Reseda, CA 91335","hasEBT":true,"hasMarketMatch":false,"rewards":null,"coupons":null,"contact":null,"websiteURL":null,"position":{"lat":34.192516,"long":-118.532557},"distance_from_sylmar":13885},{"id":342,"locationName":"Walmart","address":"25450 The Old Rd, Stevenson Ranch, CA 91381","hasEBT":true,"hasMarketMatch":false,"rewards":null,"coupons":null,"contact":null,"websiteURL":null,"position":{"lat":34.383512,"long":-118.569191},"distance_from_sylmar":12773},{"id":343,"locationName":"Rainbow Market","address":"26970 Rainbow Glen Dr, Santa Clarita, CA 91351","hasEBT":true,"hasMarketMatch":false,"rewards":null,"coupons":null,"contact":null,"websiteURL":null,"position":{"lat":34.420836,"long":-118.489932},"distance_from_sylmar":13041},{"id":344,"locationName":"Ferncola Market","address":"7636 San Fernando Rd, Sun Valley, CA 91352","hasEBT":true,"hasMarketMatch":false,"rewards":null,"coupons":null,"contact":null,"websiteURL":null,"position":{"lat":34.210462,"long":-118.355178},"distance_from_sylmar":14773},{"id":345,"locationName":"Vallarta Supermarket","address":"10950 Sherman Way, Burbank, CA 91505","hasEBT":true,"hasMarketMatch":false,"rewards":null,"coupons":null,"contact":null,"websiteURL":null,"position":{"lat":34.200454,"long":-118.367926},"distance_from_sylmar":14835},{"id":346,"locationName":"Desoto Mini Market","address":"9111 De Soto Ave, Chatsworth, CA 91311","hasEBT":true,"hasMarketMatch":false,"rewards":null,"coupons":null,"contact":null,"websiteURL":null,"position":{"lat":34.235946,"long":-118.588983},"distance_from_sylmar":13558},{"id":347,"locationName":"Target Store","address":"5711 Sepulveda Blvd, Van Nuys, CA 91411","hasEBT":true,"hasMarketMatch":false,"rewards":null,"coupons":null,"contact":null,"websiteURL":null,"position":{"lat":34.174756,"long":-118.466996},"distance_from_sylmar":14514},{"id":348,"locationName":"Namaste Spice Land","address":"21515 Soledad Canyon Rd, Santa Clarita, CA 91350","hasEBT":true,"hasMarketMatch":false,"rewards":null,"coupons":null,"contact":null,"websiteURL":null,"position":{"lat":34.416989,"long":-118.512477},"distance_from_sylmar":13114},{"id":349,"locationName":"Rocket #0633","address":"19271 Sherman Way, Reseda, CA 91335","hasEBT":true,"hasMarketMatch":false,"rewards":null,"coupons":null,"contact":null,"websiteURL":null,"position":{"lat":34.201582,"long":-118.553059},"distance_from_sylmar":13950},{"id":350,"locationName":"Famous Market","address":"6530 Lankershim Blvd, North Hollywood, CA 91606","hasEBT":true,"hasMarketMatch":false,"rewards":null,"coupons":null,"contact":null,"websiteURL":null,"position":{"lat":34.189313,"long":-118.387327},"distance_from_sylmar":14864},{"id":351,"locationName":"Sweet 1 Bakery #2","address":"6530 Lankershim Blvd, North Hollywood, CA 91606","hasEBT":true,"hasMarketMatch":false,"rewards":null,"coupons":null,"contact":null,"websiteURL":null,"position":{"lat":34.189313,"long":-118.387327},"distance_from_sylmar":14864},{"id":352,"locationName":"Quitanda Family Market","address":"7219 Tampa Ave, Reseda, CA 91335","hasEBT":true,"hasMarketMatch":false,"rewards":null,"coupons":null,"contact":null,"websiteURL":null,"position":{"lat":34.20173,"long":-118.553979},"distance_from_sylmar":13984},{"id":353,"locationName":"Yuca's Meat Inc","address":"11300 Vanowen St, North Hollywood, CA 91605","hasEBT":true,"hasMarketMatch":false,"rewards":null,"coupons":null,"contact":null,"websiteURL":null,"position":{"lat":34.193518,"long":-118.377045},"distance_from_sylmar":14965},{"id":354,"locationName":"Ralphs","address":"24975 Pico Canyon Rd, Stevenson Ranch, CA 91381","hasEBT":true,"hasMarketMatch":false,"rewards":null,"coupons":null,"contact":null,"websiteURL":null,"position":{"lat":34.382412,"long":-118.574236},"distance_from_sylmar":13035},{"id":355,"locationName":"De Soto Plaza Jr.Market &Liq.Inc #N/A","address":"8935 De Soto Ave, Canoga Park, CA 91304","hasEBT":true,"hasMarketMatch":false,"rewards":null,"coupons":null,"contact":null,"websiteURL":null,"position":{"lat":34.232792,"long":-118.588978},"distance_from_sylmar":13761},{"id":356,"locationName":"Aragats Market","address":"11748 Victory Blvd, North Hollywood, CA 91606","hasEBT":true,"hasMarketMatch":false,"rewards":null,"coupons":null,"contact":null,"websiteURL":null,"position":{"lat":34.186444,"long":-118.38945},"distance_from_sylmar":15047},{"id":357,"locationName":"Kausar Halal Meat","address":"8907 De Soto Ave, Canoga Park, CA 91304","hasEBT":true,"hasMarketMatch":false,"rewards":null,"coupons":null,"contact":null,"websiteURL":null,"position":{"lat":34.232176,"long":-118.589073},"distance_from_sylmar":13808},{"id":358,"locationName":"Trader Joe's #252","address":"6130 Laurel Canyon Blvd, North Hollywood, CA 91606","hasEBT":true,"hasMarketMatch":false,"rewards":null,"coupons":null,"contact":null,"websiteURL":null,"position":{"lat":34.183365,"long":-118.396599},"distance_from_sylmar":15052},{"id":359,"locationName":"Olive Fresh Garden","address":"12521 Oxnard St, North Hollywood, CA 91606","hasEBT":true,"hasMarketMatch":false,"rewards":null,"coupons":null,"contact":null,"websiteURL":null,"position":{"lat":34.179739,"long":-118.406041},"distance_from_sylmar":15068},